攝影機名稱,車牌,單位,日期,時間,攝影機,LocationID,經度,緯度,ConvoyID,FollowingID
(租11401)泰圳路、泰圳路200巷口-5.往泰圳路222巷(車),NOR-1003,上湖派出所,2025-08-01,08:26:00,2050225041,LOC_2258,121.112439,24.906033,,
(租11401)泰圳路、泰圳路200巷口-4.往泰圳路200巷(車),NOR-1003,上湖派出所,2025-08-01,08:26:04,2050225031,LOC_2257,121.112383,24.906291,,
(租11401)泰圳路、泰圳路200巷口-3.往泰圳路190巷(車),NOR-1003,上湖派出所,2025-08-01,08:26:16,2050225021,LOC_2256,121.112687,24.906846,,
(租11401)泰圳路、泰圳路200巷口-2.往泰圳路177巷(車),NOR-1003,上湖派出所,2025-08-01,08:26:21,2050225011,LOC_2255,121.11292,24.906736,,
(租11402)泰圳路、上湖一路口-2.往泰圳路684巷(車),NOR-1003,上湖派出所,2025-08-01,08:29:19,2050278011,LOC_2267,121.104763,24.903042,,
(租11402)泰圳路、上湖一路口-3.往三湖路(車),NOR-1003,上湖派出所,2025-08-01,08:29:34,2050278021,LOC_2268,121.104178,24.903201,,
(租11402)泰圳路、上湖一路口-4.往泰圳路820巷(車),NOR-1003,上湖派出所,2025-08-01,08:29:57,2050278031,LOC_2269,121.104487,24.902158,,
(租11402)龍安街、文中路(二)-4.往龍安街往國強一街(車),NOR-1005,龍安派出所,2025-08-01,08:32:00,2010770131,LOC_0490,121.278111,24.993426,,
(租11402)龍安街、文中路-4.往龍安街往國強一街(車),NOR-1005,龍安派出所,2025-08-01,08:32:09,2010770031,LOC_0487,121.278374,24.993772,,
(租11402)龍安街、文中路-5.往國強十三街往國豐三街(車),NOR-1005,龍安派出所,2025-08-01,08:32:11,2010770041,LOC_0487,121.27844,24.993782,,
(租11402)龍安街、文中路-2.往文中路外車道往國豐十街(車),NOR-1005,龍安派出所,2025-08-01,08:32:16,2010770011,LOC_0486,121.27822,24.993978,,
(租11402)龍安街、文中路-3.往文中路內車道往國豐十街(車),NOR-1005,龍安派出所,2025-08-01,08:32:17,2010770021,LOC_0486,121.278226,24.994016,,
(租11402)龍安街、文中路(二)-2.往文中路外車道往國豐十街(車),NOR-1005,龍安派出所,2025-08-01,08:32:32,2010770111,LOC_0489,121.277282,24.99361,,
(租11402)龍安街、文中路(二)-3.往文中路內車道往國豐十街(車),NOR-1005,龍安派出所,2025-08-01,08:32:32,2010770121,LOC_0489,121.277251,24.993603,,
(租11402)龍安街、文中路(二)-5.往國強十三街往國豐三街(車),NOR-1005,龍安派出所,2025-08-01,08:32:46,2010770141,LOC_0491,121.277875,24.993026,,
(租11401)國強十一街與國豐八街口-4.往國強十一街往國豐七街(車),NOR-1005,龍安派出所,2025-08-01,08:33:44,2010075031,LOC_0456,121.27588,24.991267,,
(租11401)國強十一街與國豐八街口-5.往國豐八街(車),NOR-1005,龍安派出所,2025-08-01,08:33:53,2010075041,LOC_0457,121.275532,24.991542000000003,,
(租11401)國強十一街與國豐八街口-3.往國強十一街往國豐十街(車),NOR-1005,龍安派出所,2025-08-01,08:34:04,2010075021,LOC_0455,121.275364,24.991079,,
(租11401)國強七街與國豐六街口-4.往國豐六街往國強八街(車),NOR-1005,龍安派出所,2025-08-01,08:35:38,2010074031,LOC_0450,121.2783,24.988496,,
(租11401)國強七街與國豐六街口-6.往國強七街往龍安街(車),NOR-1005,龍安派出所,2025-08-01,08:35:44,2010074051,LOC_0447,121.278483,24.988292,,
(租11401)國強七街與國豐六街口-7.往國豐六街往龍鳳三街(車),NOR-1005,龍安派出所,2025-08-01,08:35:49,2010074061,LOC_0452,121.278496,24.988032,,
(租11401)國強七街與國豐六街口-5.往國強七街往國強七街32巷(車),NOR-1005,龍安派出所,2025-08-01,08:35:58,2010074041,LOC_0451,121.278002,24.988121,,
(租11402)泰圳路、上湖二路-3.往泰圳路820巷(車),NOR-1003,上湖派出所,2025-08-01,08:36:00,2050915021,LOC_2272,121.091929,24.895914,,
(租11402)泰圳路、上湖二路-4.往楊湖路二段719巷(車),NOR-1003,上湖派出所,2025-08-01,08:36:08,2050915031,LOC_2273,121.091519,24.895929,,
(租11402)泰圳路、上湖二路-2.往八德路三段135巷(車),NOR-1003,上湖派出所,2025-08-01,08:36:14,2050915011,LOC_2271,121.091617,24.895593,,
(租11402)泰圳路、泰圳路1450巷口-3.往新竹(車),NOR-1003,上湖派出所,2025-08-01,08:36:50,2050279021,LOC_2276,121.090044,24.895009,,
(租11402)泰圳路、泰圳路1450巷口-2.往新竹(車),NOR-1003,上湖派出所,2025-08-01,08:36:55,2050279011,LOC_2275,121.090011,24.894771,,
(租11401)中山路943巷1弄-4.往中山路943巷往中山路(車),NOR-1005,龍安派出所,2025-08-01,08:37:18,2010046031,LOC_0437,121.282994,24.987052,,
(租11401)中華路與中華北街-3.往中華北街(車),NOR-1005,高明派出所,2025-08-01,08:39:50,2080592021,LOC_3588,121.276573,24.982187,,
(租11401)中華路與中華北街-4.往中華北街(車),NOR-1005,高明派出所,2025-08-01,08:39:54,2080592031,LOC_3589,121.276352,24.982356,,
(租11401)高鐵南路十段、上湖二路口(二)-5.往上湖二路300巷(車),NOR-1003,上湖派出所,2025-08-01,08:40:34,2050227041,LOC_2262,121.086218,24.906585,,
(租11402)高鐵南路十段、上湖二路口(一)-2.高鐵南路十段往新竹內車道(車),NOR-1003,上湖派出所,2025-08-01,08:40:43,2050284011,LOC_2279,121.085912,24.907078,,
(租11402)高鐵南路十段、上湖二路口(一)-3.高鐵南路十段往新竹外車道(車),NOR-1003,上湖派出所,2025-08-01,08:40:44,2050284021,LOC_2279,121.085887,24.90709,,
(租11401)中華路與高城六街48巷口-4.往高城六街48巷(車),NOR-1005,高明派出所,2025-08-01,08:40:46,2080593031,LOC_3592,121.274303,24.979626,,
(租11401)高鐵南路十段、上湖二路口(二)-3.高鐵南路十段往楊湖路三段外車道(車),NOR-1003,上湖派出所,2025-08-01,08:40:54,2050227021,LOC_2260,121.08628,24.907347,,
(租11401)高鐵南路十段、上湖二路口(二)-2.高鐵南路十段往楊湖路三段內車道(車),NOR-1003,上湖派出所,2025-08-01,08:40:54,2050227011,LOC_2260,121.086287,24.907363,,
(租11401)高鐵南路十段、上湖二路口(二)-4.往上湖三路421巷(車),NOR-1003,上湖派出所,2025-08-01,08:41:01,2050227031,LOC_2261,121.08664,24.907246,,
(租11402)高鐵南路十段、上湖二路口(一)-4.往上湖二路90巷(車),NOR-1003,上湖派出所,2025-08-01,08:41:16,2050284031,LOC_2280,121.085877,24.907574,,
(租11402)高鐵南路十段、上湖二路口(一)-5.往楊湖路三段875巷(車),NOR-1003,上湖派出所,2025-08-01,08:41:33,2050284041,LOC_2281,121.08517,24.907437,,
(租11401)中華路與高城六街48巷口-3.往龍祥街(車),NOR-1005,高明派出所,2025-08-01,08:41:38,2080593021,LOC_3591,121.271954,24.979301,,
(租11401)中山路與中山路1496巷-6.往中山路內車道(車),NOR-1005,龍安派出所,2025-08-01,08:43:28,2010006051,LOC_0438,121.268199,24.976535,,
(租11401)中山路與中山路1496巷-5.往中山路外車道(車),NOR-1005,龍安派出所,2025-08-01,08:43:29,2010006041,LOC_0438,121.268177,24.976557,,
(租11401)雙龍街29巷與中山路1530巷口-4.往雙龍街29巷往中山街(車),NOR-1005,龍安派出所,2025-08-01,08:44:11,2010039031,LOC_0466,121.265831,24.97812,,
(租11401)雙龍街29巷與中山路1530巷口-3.往雙龍街29巷往雙龍街(車),NOR-1005,龍安派出所,2025-08-01,08:44:46,2010039021,LOC_0467,121.266195,24.9796,,
(租11402)龍門街24號前十字路口-6.往龍門街往中壢成功路(車),NOR-1005,龍安派出所,2025-08-01,08:46:02,2010092051,LOC_0499,121.263497,24.977497,,
(租11401)龍山街186巷與中山路1562巷口-6.往中山路1562巷往龍門街(車),NOR-1005,龍安派出所,2025-08-01,08:46:42,2010038051,LOC_0463,121.26263,24.979683,,
(租11401)龍山街186巷與中山路1562巷口-5.往龍門街(車),NOR-1005,龍安派出所,2025-08-01,08:47:04,2010038041,LOC_0462,121.262647,24.980464,,
(租11402)楊湖路三段846巷與富豐三路二段口-2.往富民街(車),NOR-1003,上湖派出所,2025-08-01,08:47:18,2051005011,LOC_2283,121.078161,24.917773,,
(租11402)楊湖路三段846巷與富豐三路二段口-3.往富豐二路(車),NOR-1003,上湖派出所,2025-08-01,08:47:23,2051005021,LOC_2284,121.077966,24.917918,,
(租11401)龍山街186巷與中山路1562巷口-4.往中山路1562巷往內定一街(車),NOR-1005,龍安派出所,2025-08-01,08:47:28,2010038031,LOC_0461,121.262456,24.981445,,
(租11402)龍山街與內定一街口-5.往龍門街(車),NOR-1005,龍安派出所,2025-08-01,08:48:15,2010091041,LOC_0484,121.260617,24.98389,,
(租11402)龍山街與內定一街口-3.往龍門街(車),NOR-1005,龍安派出所,2025-08-01,08:48:26,2010091021,LOC_0482,121.260533,24.984459,,
(租11402)富豐二、富豐二259巷、260巷口-2.往楊湖路三段846巷(車),NOR-1003,富岡派出所,2025-08-01,08:50:30,2051007011,LOC_2496,121.081408,24.925559,,
(租11402)富豐二、富豐二259巷、260巷口-3.往富元街465巷(車),NOR-1003,富岡派出所,2025-08-01,08:50:43,2051007021,LOC_2497,121.081981,24.925908,,
(租11401)中正路、成功路口-4.往中華街66巷(車),NOR-1003,富岡派出所,2025-08-01,08:53:03,2050202031,LOC_2474,121.082885,24.934619,,
(租11401)中正路、成功路口-3.往中華街(車),NOR-1003,富岡派出所,2025-08-01,08:53:16,2050202021,LOC_2473,121.083021,24.935181,,
(租11401)中正路、成功路口-5.往成功路20巷(車),NOR-1003,富岡派出所,2025-08-01,08:53:31,2050202041,LOC_2475,121.083626,24.934767,,
(租11401)民生街(桃109)、民生街505巷-3.往民生街375巷(車),NOR-1003,富岡派出所,2025-08-01,08:58:44,2050208021,LOC_2478,121.087438,24.945331,,
(租11401)民生街(桃109)、民生街505巷-2.往民生街505巷(車),NOR-1003,富岡派出所,2025-08-01,08:59:03,2050208011,LOC_2477,121.087732,24.946018,,
(租11401)民生街(桃109)、民生街505巷-4.往民有路二段(車),NOR-1003,富岡派出所,2025-08-01,08:59:14,2050208031,LOC_2479,121.087243,24.946168,,
(租11401)中興路756巷口-2.往福林街(車),NOR-1002,大竹派出所,2025-08-01,09:36:00,2100706011,LOC_3971,121.249175,25.008645,,
(租11401)中興路756巷口-3.往福林街(車),NOR-1002,大竹派出所,2025-08-01,09:36:01,2100706021,LOC_3971,121.249105,25.008626,,
(租11401)中興路756巷口-6.往大竹內車道(車),NOR-1002,大竹派出所,2025-08-01,09:36:09,2100706051,LOC_3974,121.249394,25.008432,,
(租11401)中興路756巷口-7.往大竹外車道(車),NOR-1002,大竹派出所,2025-08-01,09:36:10,2100706061,LOC_3974,121.249394,25.008423,,
(租11401)中興路756巷口-5.往中興路711巷(車),NOR-1002,大竹派出所,2025-08-01,09:36:13,2100706041,LOC_3973,121.249206,25.008295,,
(租11401)中興路756巷口-4.往中興路711巷(車),NOR-1002,大竹派出所,2025-08-01,09:36:20,2100706031,LOC_3972,121.249145,25.007982,,
(租11402)中興路與中興路667巷口-6.中興路往合圳北路自行車道(車),NOR-1002,大竹派出所,2025-08-01,09:36:54,2100963051,LOC_4025,121.251108,25.008596,,
(租11402)中興路與中興路667巷口-4.往合圳北路(車),NOR-1002,大竹派出所,2025-08-01,09:36:55,2100963031,LOC_4025,121.25114,25.008585,,
(租11402)中興路與中興路667巷口-5.往中興路711巷(車),NOR-1002,大竹派出所,2025-08-01,09:37:08,2100963041,LOC_4026,121.251703,25.0084,,
(租11402)中興路與中興路667巷口-3.往龍安街二段(車),NOR-1002,大竹派出所,2025-08-01,09:37:14,2100963021,LOC_4024,121.251868,25.008618,,
(租11402)中興路與中興路667巷口-7.中興路往龍安街二段自行車道(車),NOR-1002,大竹派出所,2025-08-01,09:37:16,2100963061,LOC_4024,121.251941,25.00862,,
(租11402)龍林街與中興路585巷-2.往中興路(車),NOR-1002,大竹派出所,2025-08-01,09:39:11,2100755011,LOC_4062,121.255075,25.005162,,
(租11402)龍林街與中興路585巷-4.往龍安街二段(車),NOR-1002,大竹派出所,2025-08-01,09:39:17,2100755031,LOC_4064,121.255349,25.00511,,
(租11402)龍林街與中興路585巷-5.往涵洞(車),NOR-1002,大竹派出所,2025-08-01,09:39:23,2100755041,LOC_4061,121.255147,25.004864,,
(租11402)龍林街與中興路585巷-3.往中壢服務區(車),NOR-1002,大竹派出所,2025-08-01,09:39:26,2100755021,LOC_4063,121.255026,25.004862,,
(租11401)龍林街與福興三街-4.往龍安街二段(車),NOR-1002,大竹派出所,2025-08-01,09:39:40,2100715031,LOC_3981,121.255452,25.004319,,
(租11401)龍林街與福興三街-3.往中壢服務區(車),NOR-1002,大竹派出所,2025-08-01,09:39:44,2100715021,LOC_3981,121.255304,25.004224,,
(租11401)龍林街與福興三街-2.往福興二街(車),NOR-1002,大竹派出所,2025-08-01,09:39:56,2100715011,LOC_3982,121.255539,25.003799,,
(租11402)大興一街與興仁路口-4.往中興六街(車),NOR-1002,大竹派出所,2025-08-01,09:43:23,2100723031,LOC_4021,121.262003,25.01411,,
(租11402)大興一街與興仁路口-3.往大興二街(車),NOR-1002,大竹派出所,2025-08-01,09:43:31,2100723021,LOC_4020,121.262019,25.014476,,
(租11402)大興一街與興仁路口-2.往大興八街(車),NOR-1002,大竹派出所,2025-08-01,09:43:38,2100723011,LOC_4019,121.262376,25.014441,,
(租11402)廣福路1357巷206弄口-4.往廣福路1357巷280弄往永豐南路31巷(車),NOR-1001,高明派出所,2025-08-01,09:44:00,2080650031,LOC_3636,121.271883,24.953865,,
(租11402)廣福路1357巷206弄口-2.往廣福路1357巷往廣福路(車),NOR-1001,高明派出所,2025-08-01,09:44:08,2080650011,LOC_3634,121.271339,24.95408,,
(租11402)廣福路1357巷206弄口-3.往廣福路1357巷206弄往永豐南路31巷(車),NOR-1001,高明派出所,2025-08-01,09:44:25,2080650021,LOC_3635,121.271808,24.953303,,
(租11401)上興路、興中街-4.往大興八街(車),NOR-1002,大竹派出所,2025-08-01,09:45:10,2100803031,LOC_3936,121.259453,25.018569,,
(租11401)上興路、興中街-3.往興仁路(車),NOR-1002,大竹派出所,2025-08-01,09:45:16,2100803021,LOC_3935,121.259612,25.018846,,
(租11401)上興路、興中街-2.往大福路(車),NOR-1002,大竹派出所,2025-08-01,09:45:23,2100803011,LOC_3934,121.25949,25.019076,,
(租11401)大新一街與上興路口-2.豪登一街往大福路(車),NOR-1002,大竹派出所,2025-08-01,09:45:40,2100803111,LOC_3942,121.258302,25.019061,,
(租11401)大新一街與上興路口-3.豪登一街往大興八街(車),NOR-1002,大竹派出所,2025-08-01,09:45:44,2100803121,LOC_3943,121.25831,25.018802,,
(租11401)大新一街與上興路口-4.大新一街往大興八街(車),NOR-1002,大竹派出所,2025-08-01,09:45:58,2100803131,LOC_3944,121.257604,25.018616,,
(租11401)大新一街與上興路口-5.上興路往大興路(車),NOR-1002,大竹派出所,2025-08-01,09:46:03,2100803141,LOC_3945,121.257391,25.018888,,
(租11401)大新一街與上興路口-6.往大福路(車),NOR-1002,大竹派出所,2025-08-01,09:46:09,2100803151,LOC_3946,121.257607,25.018998,,
(租11402)廣福路1357巷與永豐南路31巷(延伸永豐南路31巷280弄口)-3.往永豐南路31巷往永豐南路31巷280弄(車),NOR-1001,高明派出所,2025-08-01,09:46:23,2080651021,LOC_3639,121.27708,24.953902,,
(租11401)大興路、上興路-4.往大新一街(車),NOR-1002,大竹派出所,2025-08-01,09:46:28,2100802031,LOC_3968,121.256593,25.018621,,
(租11402)廣福路1357巷與永豐南路31巷(延伸永豐南路31巷280弄口)-4.往永豐南路31巷往永豐路(車),NOR-1001,高明派出所,2025-08-01,09:46:58,2080651031,LOC_3640,121.277093,24.955645,,
(租11402)廣福路1357巷與永豐南路31巷(延伸永豐南路31巷280弄口)-5.往廣福路879巷192弄往廣福路879巷(車),NOR-1001,高明派出所,2025-08-01,09:47:01,2080651041,LOC_3641,121.276976,24.955713,,
(租11402)廣興路1360巷80弄口-4.往廣興路1360巷往溪墘街(車),NOR-1001,廣興派出所,2025-08-01,09:47:49,2080653031,LOC_3405,121.279342,24.954982,,
(租11402)廣興路1360巷80弄口-3.往廣興路1360巷往永豐南路(車),NOR-1001,廣興派出所,2025-08-01,09:48:29,2080653021,LOC_3403,121.280675,24.956095,,
(租11402)廣興路與廣興路1156巷口-4.往廣興路往廣福路(車),NOR-1001,廣興派出所,2025-08-01,09:49:30,2080654031,LOC_3409,121.28346,24.9546,,
(租11402)廣興路與廣興路1156巷口-3.往廣興路往新興路(車),NOR-1001,廣興派出所,2025-08-01,09:49:39,2080654021,LOC_3408,121.283674,24.954153,,
(租11402)廣興路與廣興路1156巷口-5.往廣興路1156巷往廣福路(車),NOR-1001,廣興派出所,2025-08-01,09:50:02,2080654041,LOC_3410,121.284483,24.955269,,
(租11401)廣福路與廣福路451巷口 (含483、499巷口)-3.往力霸街(車),NOR-1001,廣興派出所,2025-08-01,09:51:51,2080616021,LOC_3355,121.288328,24.959348,,
(租11401)廣福路與廣福路451巷口 (含483、499巷口)-5.往廣興路(車),NOR-1001,廣興派出所,2025-08-01,09:52:06,2080616041,LOC_3353,121.288341,24.959896,,
(租11401)廣福路與廣福路451巷口 (含483、499巷口)-4.往大湳(車),NOR-1001,廣興派出所,2025-08-01,09:52:15,2080616031,LOC_3356,121.288793,24.959853,,
(租11402)廣福路與廣隆街口-6.往廣隆街往廣福路(車),NOR-1001,廣興派出所,2025-08-01,09:53:40,2080652051,LOC_3402,121.292179,24.959346,,
(租11402)廣福路與廣隆街口-5.往廣隆街往建國路(車),NOR-1001,廣興派出所,2025-08-01,09:53:44,2080652041,LOC_3399,121.292153,24.959094,,
(租11402)中路街與中路南街口-5.往中路南街往國際路(車),NOR-1001,廣興派出所,2025-08-01,09:54:38,2080620041,LOC_3371,121.294327,24.961177,,
(租11402)中路街與中路南街口-6.往中路北街往國際二路(車),NOR-1001,廣興派出所,2025-08-01,09:54:44,2080620051,LOC_3372,121.294295,24.961488,,
(租11401)國際一路88號前路口 (延伸至國際一、二路口)-7.往國際一路往中路街(車),NOR-1001,中路派出所,2025-08-01,09:55:08,2010076061,LOC_0344,121.293306,24.961889000000003,,
(租11401)國際一路88號前路口 (延伸至國際一、二路口)-6.往國際二路往中路北街(車),NOR-1001,中路派出所,2025-08-01,09:55:16,2010076051,LOC_0343,121.293647,24.962301,,
(租11402)中路街與中路南街口-4.往國際一路往國際路一段(車),NOR-1001,廣興派出所,2025-08-01,09:55:22,2080620031,LOC_3370,121.293343,24.962521,,
(租11401)國際一路88號前路口 (延伸至國際一、二路口)-5.往中路北街67巷(車),NOR-1001,中路派出所,2025-08-01,09:55:37,2010076041,LOC_0342,121.293488,24.963336,,
(租11401)國際一路88號前路口 (延伸至國際一、二路口)-8.往國際路一段往國豐街(車),NOR-1001,中路派出所,2025-08-01,09:56:01,2010076071,LOC_0345,121.292439,24.963559,,
(租11401)國際路一段141巷與桃德路39巷口-6.往國際路一段120巷(車),NOR-1001,中路派出所,2025-08-01,09:56:21,2010078051,LOC_0351,121.292855,24.964712,,
(租11401)國際路一段141巷與桃德路39巷口-4.往桃德路39巷(車),NOR-1001,中路派出所,2025-08-01,09:56:48,2010078031,LOC_0349,121.292683,24.965737,,
(租11401)國際路一段141巷與桃德路39巷口-3.往國際路一段往桃園(車),NOR-1001,中路派出所,2025-08-01,09:56:58,2010078021,LOC_0348,121.292196,24.96585,,
(租11401)國際路一段141巷與桃德路39巷口-5.往國際路一段141巷(車),NOR-1001,中路派出所,2025-08-01,09:57:13,2010078041,LOC_0350,121.291792,24.96517,,
(租11402)國際路一段262巷與桃德路113巷-4.往八德(車),NOR-1001,中路派出所,2025-08-01,09:58:15,2010079031,LOC_0408,121.292344,24.967785,,
(租11402)國際路一段262巷與桃德路113巷-5.往桃德路(車),NOR-1001,中路派出所,2025-08-01,09:58:21,2010079041,LOC_0409,121.29252,24.96796,,
(租11402)國際路一段308號前Y字型路口-4.往八德(車),NOR-1001,中路派出所,2025-08-01,09:58:38,2010080031,LOC_0413,121.291523,24.968309,,
(租11401)民生街(桃109)、民生街505巷-4.往民有路二段(車),NOR-1003,富岡派出所,2025-08-01,17:32:00,2050208031,LOC_2479,121.087243,24.946168,,
(租11401)民生街(桃109)、民生街505巷-2.往民生街505巷(車),NOR-1003,富岡派出所,2025-08-01,17:32:11,2050208011,LOC_2477,121.087732,24.946018,,
(租11401)民生街(桃109)、民生街505巷-3.往民生街375巷(車),NOR-1003,富岡派出所,2025-08-01,17:32:25,2050208021,LOC_2478,121.087438,24.945331,,
(租11401)中正路、成功路口-5.往成功路20巷(車),NOR-1003,富岡派出所,2025-08-01,17:36:46,2050202041,LOC_2475,121.083626,24.934767,,
(租11401)中正路、成功路口-3.往中華街(車),NOR-1003,富岡派出所,2025-08-01,17:37:00,2050202021,LOC_2473,121.083021,24.935181,,
(租11401)中正路、成功路口-4.往中華街66巷(車),NOR-1003,富岡派出所,2025-08-01,17:37:11,2050202031,LOC_2474,121.082885,24.934619,,
(租11402)龍山街與內定一街口-3.往龍門街(車),NOR-1005,龍安派出所,2025-08-01,17:38:00,2010091021,LOC_0482,121.260533,24.984459,,
(租11402)龍山街與內定一街口-5.往龍門街(車),NOR-1005,龍安派出所,2025-08-01,17:38:09,2010091041,LOC_0484,121.260617,24.98389,,
(租11401)龍山街186巷與中山路1562巷口-4.往中山路1562巷往內定一街(車),NOR-1005,龍安派出所,2025-08-01,17:38:55,2010038031,LOC_0461,121.262456,24.981445,,
(租11401)龍山街186巷與中山路1562巷口-5.往龍門街(車),NOR-1005,龍安派出所,2025-08-01,17:39:17,2010038041,LOC_0462,121.262647,24.980464,,
(租11401)龍山街186巷與中山路1562巷口-6.往中山路1562巷往龍門街(車),NOR-1005,龍安派出所,2025-08-01,17:39:33,2010038051,LOC_0463,121.26263,24.979683,,
(租11402)富豐二、富豐二259巷、260巷口-3.往富元街465巷(車),NOR-1003,富岡派出所,2025-08-01,17:39:41,2051007021,LOC_2497,121.081981,24.925908,,
(租11402)富豐二、富豐二259巷、260巷口-2.往楊湖路三段846巷(車),NOR-1003,富岡派出所,2025-08-01,17:39:55,2051007011,LOC_2496,121.081408,24.925559,,
(租11402)龍門街24號前十字路口-6.往龍門街往中壢成功路(車),NOR-1005,龍安派出所,2025-08-01,17:40:12,2010092051,LOC_0499,121.263497,24.977497,,
(租11401)雙龍街29巷與中山路1530巷口-3.往雙龍街29巷往雙龍街(車),NOR-1005,龍安派出所,2025-08-01,17:41:30,2010039021,LOC_0467,121.266195,24.9796,,
(租11401)雙龍街29巷與中山路1530巷口-4.往雙龍街29巷往中山街(車),NOR-1005,龍安派出所,2025-08-01,17:42:05,2010039031,LOC_0466,121.265831,24.97812,,
(租11401)中山路與中山路1496巷-5.往中山路外車道(車),NOR-1005,龍安派出所,2025-08-01,17:42:52,2010006041,LOC_0438,121.268177,24.976557,,
(租11401)中山路與中山路1496巷-6.往中山路內車道(車),NOR-1005,龍安派出所,2025-08-01,17:42:53,2010006051,LOC_0438,121.268199,24.976535,,
(租11402)楊湖路三段846巷與富豐三路二段口-3.往富豐二路(車),NOR-1003,上湖派出所,2025-08-01,17:43:20,2051005021,LOC_2284,121.077966,24.917918,,
(租11402)楊湖路三段846巷與富豐三路二段口-2.往富民街(車),NOR-1003,上湖派出所,2025-08-01,17:43:24,2051005011,LOC_2283,121.078161,24.917773,,
(租11401)中華路與高城六街48巷口-3.往龍祥街(車),NOR-1005,高明派出所,2025-08-01,17:44:30,2080593021,LOC_3591,121.271954,24.979301,,
(租11401)中華路與高城六街48巷口-4.往高城六街48巷(車),NOR-1005,高明派出所,2025-08-01,17:45:09,2080593031,LOC_3592,121.274303,24.979626,,
(租11401)中華路與中華北街-4.往中華北街(車),NOR-1005,高明派出所,2025-08-01,17:46:01,2080592031,LOC_3589,121.276352,24.982356,,
(租11401)中華路與中華北街-3.往中華北街(車),NOR-1005,高明派出所,2025-08-01,17:46:05,2080592021,LOC_3588,121.276573,24.982187,,
(租11402)高鐵南路十段、上湖二路口(一)-5.往楊湖路三段875巷(車),NOR-1003,上湖派出所,2025-08-01,17:47:17,2050284041,LOC_2281,121.08517,24.907437,,
(租11402)高鐵南路十段、上湖二路口(一)-4.往上湖二路90巷(車),NOR-1003,上湖派出所,2025-08-01,17:47:32,2050284031,LOC_2280,121.085877,24.907574,,
(租11401)高鐵南路十段、上湖二路口(二)-4.往上湖三路421巷(車),NOR-1003,上湖派出所,2025-08-01,17:47:52,2050227031,LOC_2261,121.08664,24.907246,,
(租11401)高鐵南路十段、上湖二路口(二)-2.高鐵南路十段往楊湖路三段內車道(車),NOR-1003,上湖派出所,2025-08-01,17:47:58,2050227011,LOC_2260,121.086287,24.907363,,
(租11401)高鐵南路十段、上湖二路口(二)-3.高鐵南路十段往楊湖路三段外車道(車),NOR-1003,上湖派出所,2025-08-01,17:47:58,2050227021,LOC_2260,121.08628,24.907347,,
(租11402)高鐵南路十段、上湖二路口(一)-3.高鐵南路十段往新竹外車道(車),NOR-1003,上湖派出所,2025-08-01,17:48:05,2050284021,LOC_2279,121.085887,24.90709,,
(租11402)高鐵南路十段、上湖二路口(一)-2.高鐵南路十段往新竹內車道(車),NOR-1003,上湖派出所,2025-08-01,17:48:06,2050284011,LOC_2279,121.085912,24.907078,,
(租11401)中山路943巷1弄-4.往中山路943巷往中山路(車),NOR-1005,龍安派出所,2025-08-01,17:48:08,2010046031,LOC_0437,121.282994,24.987052,,
(租11401)高鐵南路十段、上湖二路口(二)-5.往上湖二路300巷(車),NOR-1003,上湖派出所,2025-08-01,17:48:15,2050227041,LOC_2262,121.086218,24.906585,,
(租11401)國強七街與國豐六街口-5.往國強七街往國強七街32巷(車),NOR-1005,龍安派出所,2025-08-01,17:49:48,2010074041,LOC_0451,121.278002,24.988121,,
(租11401)國強七街與國豐六街口-7.往國豐六街往龍鳳三街(車),NOR-1005,龍安派出所,2025-08-01,17:49:59,2010074061,LOC_0452,121.278496,24.988032,,
(租11401)國強七街與國豐六街口-6.往國強七街往龍安街(車),NOR-1005,龍安派出所,2025-08-01,17:50:03,2010074051,LOC_0447,121.278483,24.988292,,
(租11401)國強七街與國豐六街口-4.往國豐六街往國強八街(車),NOR-1005,龍安派出所,2025-08-01,17:50:09,2010074031,LOC_0450,121.2783,24.988496,,
(租11401)國強十一街與國豐八街口-3.往國強十一街往國豐十街(車),NOR-1005,龍安派出所,2025-08-01,17:51:17,2010075021,LOC_0455,121.275364,24.991079,,
(租11401)國強十一街與國豐八街口-5.往國豐八街(車),NOR-1005,龍安派出所,2025-08-01,17:51:26,2010075041,LOC_0457,121.275532,24.991542000000003,,
(租11401)國強十一街與國豐八街口-4.往國強十一街往國豐七街(車),NOR-1005,龍安派出所,2025-08-01,17:51:34,2010075031,LOC_0456,121.27588,24.991267,,
(租11402)泰圳路、泰圳路1450巷口-2.往新竹(車),NOR-1003,上湖派出所,2025-08-01,17:51:37,2050279011,LOC_2275,121.090011,24.894771,,
(租11402)泰圳路、泰圳路1450巷口-3.往新竹(車),NOR-1003,上湖派出所,2025-08-01,17:51:41,2050279021,LOC_2276,121.090044,24.895009,,
(租11402)泰圳路、上湖二路-2.往八德路三段135巷(車),NOR-1003,上湖派出所,2025-08-01,17:52:16,2050915011,LOC_2271,121.091617,24.895593,,
(租11402)泰圳路、上湖二路-4.往楊湖路二段719巷(車),NOR-1003,上湖派出所,2025-08-01,17:52:21,2050915031,LOC_2273,121.091519,24.895929,,
(租11402)龍安街、文中路(二)-5.往國強十三街往國豐三街(車),NOR-1005,龍安派出所,2025-08-01,17:52:24,2010770141,LOC_0491,121.277875,24.993026,,
(租11402)泰圳路、上湖二路-3.往泰圳路820巷(車),NOR-1003,上湖派出所,2025-08-01,17:52:32,2050915021,LOC_2272,121.091929,24.895914,,
(租11402)龍安街、文中路(二)-3.往文中路內車道往國豐十街(車),NOR-1005,龍安派出所,2025-08-01,17:52:43,2010770121,LOC_0489,121.277251,24.993603,,
(租11402)龍安街、文中路(二)-2.往文中路外車道往國豐十街(車),NOR-1005,龍安派出所,2025-08-01,17:52:43,2010770111,LOC_0489,121.277282,24.99361,,
(租11402)龍安街、文中路-3.往文中路內車道往國豐十街(車),NOR-1005,龍安派出所,2025-08-01,17:53:05,2010770021,LOC_0486,121.278226,24.994016,,
(租11402)龍安街、文中路-2.往文中路外車道往國豐十街(車),NOR-1005,龍安派出所,2025-08-01,17:53:06,2010770011,LOC_0486,121.27822,24.993978,,
(租11402)龍安街、文中路-5.往國強十三街往國豐三街(車),NOR-1005,龍安派出所,2025-08-01,17:53:11,2010770041,LOC_0487,121.27844,24.993782,,
(租11402)龍安街、文中路-4.往龍安街往國強一街(車),NOR-1005,龍安派出所,2025-08-01,17:53:12,2010770031,LOC_0487,121.278374,24.993772,,
(租11402)龍安街、文中路(二)-4.往龍安街往國強一街(車),NOR-1005,龍安派出所,2025-08-01,17:53:18,2010770131,LOC_0490,121.278111,24.993426,,
(租11402)泰圳路、上湖一路口-4.往泰圳路820巷(車),NOR-1003,上湖派出所,2025-08-01,17:56:50,2050278031,LOC_2269,121.104487,24.902158,,
(租11402)泰圳路、上湖一路口-3.往三湖路(車),NOR-1003,上湖派出所,2025-08-01,17:57:08,2050278021,LOC_2268,121.104178,24.903201,,
(租11402)泰圳路、上湖一路口-2.往泰圳路684巷(車),NOR-1003,上湖派出所,2025-08-01,17:57:17,2050278011,LOC_2267,121.104763,24.903042,,
(租11401)泰圳路、泰圳路200巷口-2.往泰圳路177巷(車),NOR-1003,上湖派出所,2025-08-01,17:59:48,2050225011,LOC_2255,121.11292,24.906736,,
(租11401)泰圳路、泰圳路200巷口-3.往泰圳路190巷(車),NOR-1003,上湖派出所,2025-08-01,17:59:52,2050225021,LOC_2256,121.112687,24.906846,,
(租11401)泰圳路、泰圳路200巷口-4.往泰圳路200巷(車),NOR-1003,上湖派出所,2025-08-01,18:00:06,2050225031,LOC_2257,121.112383,24.906291,,
(租11401)泰圳路、泰圳路200巷口-5.往泰圳路222巷(車),NOR-1003,上湖派出所,2025-08-01,18:00:14,2050225041,LOC_2258,121.112439,24.906033,,
(租11402)國際路一段308號前Y字型路口-4.往八德(車),NOR-1001,中路派出所,2025-08-01,19:09:00,2010080031,LOC_0413,121.291523,24.968309,,
(租11402)國際路一段262巷與桃德路113巷-5.往桃德路(車),NOR-1001,中路派出所,2025-08-01,19:09:17,2010079041,LOC_0409,121.29252,24.96796,,
(租11402)國際路一段262巷與桃德路113巷-4.往八德(車),NOR-1001,中路派出所,2025-08-01,19:09:21,2010079031,LOC_0408,121.292344,24.967785,,
(租11401)國際路一段141巷與桃德路39巷口-5.往國際路一段141巷(車),NOR-1001,中路派出所,2025-08-01,19:10:18,2010078041,LOC_0350,121.291792,24.96517,,
(租11401)國際路一段141巷與桃德路39巷口-3.往國際路一段往桃園(車),NOR-1001,中路派出所,2025-08-01,19:10:34,2010078021,LOC_0348,121.292196,24.96585,,
(租11401)國際路一段141巷與桃德路39巷口-4.往桃德路39巷(車),NOR-1001,中路派出所,2025-08-01,19:10:42,2010078031,LOC_0349,121.292683,24.965737,,
(租11401)國際路一段141巷與桃德路39巷口-6.往國際路一段120巷(車),NOR-1001,中路派出所,2025-08-01,19:11:00,2010078051,LOC_0351,121.292855,24.964712,,
(租11401)國際一路88號前路口 (延伸至國際一、二路口)-8.往國際路一段往國豐街(車),NOR-1001,中路派出所,2025-08-01,19:11:21,2010076071,LOC_0345,121.292439,24.963559,,
(租11401)國際一路88號前路口 (延伸至國際一、二路口)-5.往中路北街67巷(車),NOR-1001,中路派出所,2025-08-01,19:11:42,2010076041,LOC_0342,121.293488,24.963336,,
(租11402)中路街與中路南街口-4.往國際一路往國際路一段(車),NOR-1001,廣興派出所,2025-08-01,19:12:02,2080620031,LOC_3370,121.293343,24.962521,,
(租11401)國際一路88號前路口 (延伸至國際一、二路口)-6.往國際二路往中路北街(車),NOR-1001,中路派出所,2025-08-01,19:12:07,2010076051,LOC_0343,121.293647,24.962301,,
(租11401)國際一路88號前路口 (延伸至國際一、二路口)-7.往國際一路往中路街(車),NOR-1001,中路派出所,2025-08-01,19:12:21,2010076061,LOC_0344,121.293306,24.961889000000003,,
(租11402)中路街與中路南街口-6.往中路北街往國際二路(車),NOR-1001,廣興派出所,2025-08-01,19:12:41,2080620051,LOC_3372,121.294295,24.961488,,
(租11402)中路街與中路南街口-5.往中路南街往國際路(車),NOR-1001,廣興派出所,2025-08-01,19:12:47,2080620041,LOC_3371,121.294327,24.961177,,
(租11402)廣福路與廣隆街口-5.往廣隆街往建國路(車),NOR-1001,廣興派出所,2025-08-01,19:13:59,2080652041,LOC_3399,121.292153,24.959094,,
(租11402)廣福路與廣隆街口-6.往廣隆街往廣福路(車),NOR-1001,廣興派出所,2025-08-01,19:14:06,2080652051,LOC_3402,121.292179,24.959346,,
(租11401)廣福路與廣福路451巷口 (含483、499巷口)-4.往大湳(車),NOR-1001,廣興派出所,2025-08-01,19:15:13,2080616031,LOC_3356,121.288793,24.959853,,
(租11401)廣福路與廣福路451巷口 (含483、499巷口)-5.往廣興路(車),NOR-1001,廣興派出所,2025-08-01,19:15:19,2080616041,LOC_3353,121.288341,24.959896,,
(租11401)廣福路與廣福路451巷口 (含483、499巷口)-3.往力霸街(車),NOR-1001,廣興派出所,2025-08-01,19:15:30,2080616021,LOC_3355,121.288328,24.959348,,
(租11402)廣興路與廣興路1156巷口-5.往廣興路1156巷往廣福路(車),NOR-1001,廣興派出所,2025-08-01,19:17:39,2080654041,LOC_3410,121.284483,24.955269,,
(租11402)廣興路與廣興路1156巷口-3.往廣興路往新興路(車),NOR-1001,廣興派出所,2025-08-01,19:18:00,2080654021,LOC_3408,121.283674,24.954153,,
(租11402)廣興路與廣興路1156巷口-4.往廣興路往廣福路(車),NOR-1001,廣興派出所,2025-08-01,19:18:14,2080654031,LOC_3409,121.28346,24.9546,,
(租11402)廣興路1360巷80弄口-3.往廣興路1360巷往永豐南路(車),NOR-1001,廣興派出所,2025-08-01,19:19:33,2080653021,LOC_3403,121.280675,24.956095,,
(租11402)廣興路1360巷80弄口-4.往廣興路1360巷往溪墘街(車),NOR-1001,廣興派出所,2025-08-01,19:19:59,2080653031,LOC_3405,121.279342,24.954982,,
(租11402)廣福路1357巷與永豐南路31巷(延伸永豐南路31巷280弄口)-5.往廣福路879巷192弄往廣福路879巷(車),NOR-1001,高明派出所,2025-08-01,19:20:34,2080651041,LOC_3641,121.276976,24.955713,,
(租11402)廣福路1357巷與永豐南路31巷(延伸永豐南路31巷280弄口)-4.往永豐南路31巷往永豐路(車),NOR-1001,高明派出所,2025-08-01,19:20:37,2080651031,LOC_3640,121.277093,24.955645,,
(租11402)廣福路1357巷與永豐南路31巷(延伸永豐南路31巷280弄口)-3.往永豐南路31巷往永豐南路31巷280弄(車),NOR-1001,高明派出所,2025-08-01,19:21:17,2080651021,LOC_3639,121.27708,24.953902,,
(租11402)廣福路1357巷206弄口-3.往廣福路1357巷206弄往永豐南路31巷(車),NOR-1001,高明派出所,2025-08-01,19:22:32,2080650021,LOC_3635,121.271808,24.953303,,
(租11402)廣福路1357巷206弄口-2.往廣福路1357巷往廣福路(車),NOR-1001,高明派出所,2025-08-01,19:22:46,2080650011,LOC_3634,121.271339,24.95408,,
(租11402)廣福路1357巷206弄口-4.往廣福路1357巷280弄往永豐南路31巷(車),NOR-1001,高明派出所,2025-08-01,19:22:55,2080650031,LOC_3636,121.271883,24.953865,,
(租11401)大興路、上興路-4.往大新一街(車),NOR-1002,大竹派出所,2025-08-01,19:53:00,2100802031,LOC_3968,121.256593,25.018621,,
(租11401)大新一街與上興路口-6.往大福路(車),NOR-1002,大竹派出所,2025-08-01,19:53:21,2100803151,LOC_3946,121.257607,25.018998,,
(租11401)大新一街與上興路口-5.上興路往大興路(車),NOR-1002,大竹派出所,2025-08-01,19:53:25,2100803141,LOC_3945,121.257391,25.018888,,
(租11401)大新一街與上興路口-4.大新一街往大興八街(車),NOR-1002,大竹派出所,2025-08-01,19:53:31,2100803131,LOC_3944,121.257604,25.018616,,
(租11401)大新一街與上興路口-3.豪登一街往大興八街(車),NOR-1002,大竹派出所,2025-08-01,19:53:41,2100803121,LOC_3943,121.25831,25.018802,,
(租11401)大新一街與上興路口-2.豪登一街往大福路(車),NOR-1002,大竹派出所,2025-08-01,19:53:49,2100803111,LOC_3942,121.258302,25.019061,,
(租11401)上興路、興中街-2.往大福路(車),NOR-1002,大竹派出所,2025-08-01,19:54:09,2100803011,LOC_3934,121.25949,25.019076,,
(租11401)上興路、興中街-3.往興仁路(車),NOR-1002,大竹派出所,2025-08-01,19:54:14,2100803021,LOC_3935,121.259612,25.018846,,
(租11401)上興路、興中街-4.往大興八街(車),NOR-1002,大竹派出所,2025-08-01,19:54:20,2100803031,LOC_3936,121.259453,25.018569,,
(租11402)大興一街與興仁路口-2.往大興八街(車),NOR-1002,大竹派出所,2025-08-01,19:56:08,2100723011,LOC_4019,121.262376,25.014441,,
(租11402)大興一街與興仁路口-3.往大興二街(車),NOR-1002,大竹派出所,2025-08-01,19:56:17,2100723021,LOC_4020,121.262019,25.014476,,
(租11402)大興一街與興仁路口-4.往中興六街(車),NOR-1002,大竹派出所,2025-08-01,19:56:26,2100723031,LOC_4021,121.262003,25.01411,,
(租11401)龍林街與福興三街-2.往福興二街(車),NOR-1002,大竹派出所,2025-08-01,20:00:04,2100715011,LOC_3982,121.255539,25.003799,,
(租11401)龍林街與福興三街-3.往中壢服務區(車),NOR-1002,大竹派出所,2025-08-01,20:00:12,2100715021,LOC_3981,121.255304,25.004224,,
(租11401)龍林街與福興三街-4.往龍安街二段(車),NOR-1002,大竹派出所,2025-08-01,20:00:14,2100715031,LOC_3981,121.255452,25.004319,,
(租11402)龍林街與中興路585巷-3.往中壢服務區(車),NOR-1002,大竹派出所,2025-08-01,20:00:26,2100755021,LOC_4063,121.255026,25.004862,,
(租11402)龍林街與中興路585巷-5.往涵洞(車),NOR-1002,大竹派出所,2025-08-01,20:00:27,2100755041,LOC_4061,121.255147,25.004864,,
(租11402)龍林街與中興路585巷-4.往龍安街二段(車),NOR-1002,大竹派出所,2025-08-01,20:00:36,2100755031,LOC_4064,121.255349,25.00511,,
(租11402)龍林街與中興路585巷-2.往中興路(車),NOR-1002,大竹派出所,2025-08-01,20:00:42,2100755011,LOC_4062,121.255075,25.005162,,
(租11402)中興路與中興路667巷口-7.中興路往龍安街二段自行車道(車),NOR-1002,大竹派出所,2025-08-01,20:02:31,2100963061,LOC_4024,121.251941,25.00862,,
(租11402)中興路與中興路667巷口-3.往龍安街二段(車),NOR-1002,大竹派出所,2025-08-01,20:02:32,2100963021,LOC_4024,121.251868,25.008618,,
(租11402)中興路與中興路667巷口-5.往中興路711巷(車),NOR-1002,大竹派出所,2025-08-01,20:02:39,2100963041,LOC_4026,121.251703,25.0084,,
(租11402)中興路與中興路667巷口-4.往合圳北路(車),NOR-1002,大竹派出所,2025-08-01,20:02:50,2100963031,LOC_4025,121.25114,25.008585,,
(租11402)中興路與中興路667巷口-6.中興路往合圳北路自行車道(車),NOR-1002,大竹派出所,2025-08-01,20:02:51,2100963051,LOC_4025,121.251108,25.008596,,
(租11401)中興路756巷口-4.往中興路711巷(車),NOR-1002,大竹派出所,2025-08-01,20:03:31,2100706031,LOC_3972,121.249145,25.007982,,
(租11401)中興路756巷口-5.往中興路711巷(車),NOR-1002,大竹派出所,2025-08-01,20:03:38,2100706041,LOC_3973,121.249206,25.008295,,
(租11401)中興路756巷口-7.往大竹外車道(車),NOR-1002,大竹派出所,2025-08-01,20:03:43,2100706061,LOC_3974,121.249394,25.008423,,
(租11401)中興路756巷口-6.往大竹內車道(車),NOR-1002,大竹派出所,2025-08-01,20:03:44,2100706051,LOC_3974,121.249394,25.008432,,
(租11401)中興路756巷口-3.往福林街(車),NOR-1002,大竹派出所,2025-08-01,20:03:49,2100706021,LOC_3971,121.249105,25.008626,,
(租11401)中興路756巷口-2.往福林街(車),NOR-1002,大竹派出所,2025-08-01,20:03:50,2100706011,LOC_3971,121.249175,25.008645,,
(租11401)中興路756巷口-2.往福林街(車),DEL-8888,大竹派出所,2025-08-01,20:44:00,2100706011,LOC_3971,121.249175,25.008645,,
(租11401)龍岡路二段、健行路口-4.往環中東路二段(車),DEL-8888,中壢派出所,2025-08-01,21:04:55,2000134031,LOC_2115,121.228904,24.946377,,
(租11401)環中東路、龍岡路口-2.往健行路(車),DEL-8888,龍興派出所,2025-08-01,21:05:19,2000140011,LOC_1825,121.229431,24.945089,,
(租11401)環中東路、龍岡路口-3.往後興路(車),DEL-8888,龍興派出所,2025-08-01,21:05:32,2000140021,LOC_1826,121.229749,24.944573,,
(租11401)環中東路、龍岡路口-5.往龍岡路三段(車),DEL-8888,龍興派出所,2025-08-01,21:05:41,2000140041,LOC_1828,121.229696,24.944169,,
(租11401)環中東路、龍岡路口-6.往台灣中油(龍岡站)(車),DEL-8888,龍興派出所,2025-08-01,21:05:45,2000140051,LOC_1829,121.229979,24.944198,,
(租11401)環中東路、龍岡路口-4.往林森路(車),DEL-8888,龍興派出所,2025-08-01,21:06:01,2000140031,LOC_1827,121.229213,24.944372,,
(租11401)環中東路二段、吉長街口-2.往昆明街(車),DEL-8888,普仁派出所,2025-08-01,21:06:30,2000141011,LOC_2079,121.230944,24.945361,,
(租11401)環中東路二段、吉長街口-3.往昆明街(車),DEL-8888,普仁派出所,2025-08-01,21:06:31,2000141021,LOC_2079,121.23096,24.945351,,
(租11401)環中東路二段、後興路二段口-2.往成都路(車),DEL-8888,普仁派出所,2025-08-01,21:06:38,2000141111,LOC_2081,121.231163,24.945162,,
(租11402)龍岡路二段321巷39弄口-5.往龍岡路二段321巷39弄8衖口(車),DEL-8888,龍興派出所,2025-08-01,21:07:30,2000193041,LOC_1862,121.231131,24.942336,,
(租11402)龍岡路二段321巷39弄口-2.往龍岡路二段353巷21弄(車),DEL-8888,龍興派出所,2025-08-01,21:07:36,2000193011,LOC_1859,121.231139,24.942059,,
(租11402)龍岡路二段321巷39弄口-3.往龍岡路二段321巷(車),DEL-8888,龍興派出所,2025-08-01,21:07:45,2000193021,LOC_1860,121.231594,24.941984,,
(租11402)龍岡路二段321巷39弄口-4.往龍岡路二段321巷39弄8衖(車),DEL-8888,龍興派出所,2025-08-01,21:07:51,2000193031,LOC_1861,121.231688,24.942295,,
(租11402)龍岡路二段321巷39弄口-6.往龍岡路二段321巷1弄口(車),DEL-8888,龍興派出所,2025-08-01,21:08:16,2000193051,LOC_1863,121.230659,24.942092,,
(租11402)龍岡路二段與321巷、龍翔街口-2.往龍岡路二段321巷口(車),DEL-8888,龍興派出所,2025-08-01,21:08:26,2001111011,LOC_1865,121.230052,24.942212,,
(租11402)執信一街與英士一街、皓東街口-4.往鄒容一街(車),DEL-8888,龍興派出所,2025-08-01,21:10:00,2000181031,LOC_1846,121.227281,24.9465,,
(租11402)執信一街與英士一街、皓東街口-3.往龍岡路一段(車),DEL-8888,龍興派出所,2025-08-01,21:10:08,2000181021,LOC_1845,121.227037,24.946971,,
(租11401)龍岡路二段、健行路口-5.往中北路二段(車),DEL-8888,中壢派出所,2025-08-01,21:10:24,2000134041,LOC_2117,121.227677,24.9473,,
(租11401)志航街與少康一街、二街及執信二街口-5.往吳鳳二街(車),DEL-8888,龍興派出所,2025-08-01,21:11:17,2000114041,LOC_1805,121.225063,24.945481,,
(租11401)志航街與少康一街、二街及執信二街口-6.往吳鳳三街(車),DEL-8888,龍興派出所,2025-08-01,21:11:20,2000114051,LOC_1806,121.224897,24.945502,,
(租11401)志航街與少康一街、二街及執信二街口-7.往逢甲二街(車),DEL-8888,龍興派出所,2025-08-01,21:11:31,2000114061,LOC_1807,121.224683,24.944995,,
(租11401)志航街與少康一街、二街及執信二街口-8.往自忠街116巷(車),DEL-8888,龍興派出所,2025-08-01,21:11:35,2000114071,LOC_1808,121.22484,24.944762,,
(租11401)志航街與少康一街、二街及執信二街口-9.往銘傳街(車),DEL-8888,龍興派出所,2025-08-01,21:11:44,2000114081,LOC_1809,121.224949,24.94445,,
(租11401)天祥三街與自忠二街、自忠街口-2.往志航街(車),DEL-8888,龍興派出所,2025-08-01,21:12:31,2000113011,LOC_1797,121.223617,24.946014,,
(租11401)天祥三街與自忠二街、自忠街口-3.往天祥二街(車),DEL-8888,龍興派出所,2025-08-01,21:12:36,2000113021,LOC_1798,121.223326,24.946081,,
(租11401)天祥三街與自忠二街、自忠街口-5.往自忠三街(車),DEL-8888,龍興派出所,2025-08-01,21:12:39,2000113041,LOC_1800,121.223313,24.945952,,
(租11401)天祥三街與自忠二街、自忠街口-4.往天祥一街(車),DEL-8888,龍興派出所,2025-08-01,21:12:43,2000113031,LOC_1799,121.223061,24.946113,,
(租11401)天祥三街與自忠二街、自忠街口-6.往金陵路(車),DEL-8888,龍興派出所,2025-08-01,21:12:46,2000113051,LOC_1799,121.222988,24.946053,,
(租11401)金陵路二段、振平街-7.往振昌街(車),DEL-8888,北勢派出所,2025-08-01,21:13:33,2060793061,LOC_2705,121.222063,24.943958,,
(租11401)金陵路二段、振平街-8.往金陵路二段14巷(車),DEL-8888,北勢派出所,2025-08-01,21:13:52,2060793071,LOC_2706,121.222666,24.942903,,
(租11401)金陵路二段、振平街-9.往振平街(車),DEL-8888,北勢派出所,2025-08-01,21:14:03,2060793081,LOC_2704,121.222219,24.942341,,
(租11401)金陵路二段、振平街-10.往金興街(車),DEL-8888,北勢派出所,2025-08-01,21:14:25,2060793091,LOC_2700,121.222826,24.94175,,
(租11401)環南路三段、金陵路二段口-2.往金陵路(車),DEL-8888,北勢派出所,2025-08-01,21:14:37,2060792011,LOC_2734,121.222983,24.941053,,
(租11401)環南路三段、金陵路二段口-5.往德育路二段(車),DEL-8888,北勢派出所,2025-08-01,21:14:44,2060792041,LOC_2737,121.222857,24.940679,,
(租11401)環南路三段、金陵路二段口-4.往金陵路三段(車),DEL-8888,北勢派出所,2025-08-01,21:14:51,2060792031,LOC_2736,121.223054,24.940413,,
(租11401)環南路三段、金陵路二段口-3.往環中東路二段(車),DEL-8888,北勢派出所,2025-08-01,21:15:05,2060792021,LOC_2735,121.223623,24.940877,,
(租11401)大德街、德泉街口-4.往環中東路二段867巷(車),DEL-8888,龍興派出所,2025-08-01,21:16:02,2000146031,LOC_1795,121.225565,24.938354,,
(租11401)大德街、德泉街口-3.往金陵路二段369巷(車),DEL-8888,龍興派出所,2025-08-01,21:16:43,2000146021,LOC_1794,121.22599,24.936879,,
(租11401)大德街、德泉街口-2.往龍泉一街(車),DEL-8888,龍興派出所,2025-08-01,21:17:09,2000146011,LOC_1793,121.227214,24.936243,,
(租11402)龍泉一街、德泉街口-4.往龍泉街137巷(車),DEL-8888,龍岡派出所,2025-08-01,21:18:43,2060542031,LOC_3104,121.231184,24.931492,,
(租11402)游泳路120巷16弄口-3.往游泳路120巷81弄(車),DEL-8888,龍岡派出所,2025-08-01,21:19:14,2060527021,LOC_3082,121.232458,24.930844,,
(租11402)游泳路120巷16弄口-4.往游泳路120巷13弄口(車),DEL-8888,龍岡派出所,2025-08-01,21:19:32,2060527031,LOC_3080,121.232739,24.93019,,
(租11401)金陵路三段、大智街口-3.往龍泉一街(車),DEL-8888,建安派出所,2025-08-01,21:20:32,2060475021,LOC_3011,121.228725,24.929053,,
(租11401)金陵路三段、大仁街口-2.往金陵路三段88巷(車),DEL-8888,建安派出所,2025-08-01,21:21:01,2060474011,LOC_3006,121.227404,24.928252,,
(租11401)金陵路三段、大仁街口-3.往金陵路三段72巷(車),DEL-8888,建安派出所,2025-08-01,21:21:11,2060474021,LOC_3007,121.227021,24.928328,,
(租11401)金陵路三段、大仁街口-4.往大仁街4巷(車),DEL-8888,建安派出所,2025-08-01,21:21:14,2060474031,LOC_3008,121.227029,24.92852,,
(租11401)金陵路三段、大智街口-4.往大勇街(車),DEL-8888,建安派出所,2025-08-01,21:21:25,2060475031,LOC_3012,121.226746,24.92882,,
(租11401)大勇街、大智街、大仁街-6.往金陵路(車),DEL-8888,建安派出所,2025-08-01,21:22:27,2060465051,LOC_2990,121.224388,24.927711,,
(租11401)大勇街、大智街、大仁街-5.往大智街(車),DEL-8888,建安派出所,2025-08-01,21:22:37,2060465041,LOC_2989,121.223977,24.927951,,
(租11401)大勇街、大智街、大仁街-5.往大智街(車),DEL-8888,建安派出所,2025-08-01,21:22:37,2060465041,LOC_2989,121.223977,24.927951,,
(租11401)大勇街、大智街、大仁街-6.往金陵路(車),DEL-8888,建安派出所,2025-08-01,21:22:46,2060465051,LOC_2990,121.224388,24.927711,,
(租11401)金陵路三段、大智街口-4.往大勇街(車),DEL-8888,建安派出所,2025-08-01,21:23:25,2060475031,LOC_3012,121.226746,24.92882,,
(租11401)金陵路三段、大仁街口-4.往大仁街4巷(車),DEL-8888,建安派出所,2025-08-01,21:23:31,2060474031,LOC_3008,121.227029,24.92852,,
(租11401)金陵路三段、大仁街口-3.往金陵路三段72巷(車),DEL-8888,建安派出所,2025-08-01,21:23:36,2060474021,LOC_3007,121.227021,24.928328,,
(租11401)金陵路三段、大仁街口-2.往金陵路三段88巷(車),DEL-8888,建安派出所,2025-08-01,21:23:46,2060474011,LOC_3006,121.227404,24.928252,,
(租11401)金陵路三段、大智街口-3.往龍泉一街(車),DEL-8888,建安派出所,2025-08-01,21:24:14,2060475021,LOC_3011,121.228725,24.929053,,
(租11402)游泳路120巷16弄口-4.往游泳路120巷13弄口(車),DEL-8888,龍岡派出所,2025-08-01,21:25:26,2060527031,LOC_3080,121.232739,24.93019,,
(租11402)游泳路120巷16弄口-3.往游泳路120巷81弄(車),DEL-8888,龍岡派出所,2025-08-01,21:25:45,2060527021,LOC_3082,121.232458,24.930844,,
(租11402)龍泉一街、德泉街口-4.往龍泉街137巷(車),DEL-8888,龍岡派出所,2025-08-01,21:26:23,2060542031,LOC_3104,121.231184,24.931492,,
(租11401)大德街、德泉街口-2.往龍泉一街(車),DEL-8888,龍興派出所,2025-08-01,21:28:09,2000146011,LOC_1793,121.227214,24.936243,,
(租11401)大德街、德泉街口-3.往金陵路二段369巷(車),DEL-8888,龍興派出所,2025-08-01,21:28:38,2000146021,LOC_1794,121.22599,24.936879,,
(租11401)大德街、德泉街口-4.往環中東路二段867巷(車),DEL-8888,龍興派出所,2025-08-01,21:29:04,2000146031,LOC_1795,121.225565,24.938354,,
(租11401)環南路三段、金陵路二段口-3.往環中東路二段(車),DEL-8888,北勢派出所,2025-08-01,21:30:06,2060792021,LOC_2735,121.223623,24.940877,,
(租11401)環南路三段、金陵路二段口-4.往金陵路三段(車),DEL-8888,北勢派出所,2025-08-01,21:30:20,2060792031,LOC_2736,121.223054,24.940413,,
(租11401)環南路三段、金陵路二段口-5.往德育路二段(車),DEL-8888,北勢派出所,2025-08-01,21:30:25,2060792041,LOC_2737,121.222857,24.940679,,
(租11401)環南路三段、金陵路二段口-2.往金陵路(車),DEL-8888,北勢派出所,2025-08-01,21:30:34,2060792011,LOC_2734,121.222983,24.941053,,
(租11401)金陵路二段、振平街-10.往金興街(車),DEL-8888,北勢派出所,2025-08-01,21:30:53,2060793091,LOC_2700,121.222826,24.94175,,
(租11401)金陵路二段、振平街-9.往振平街(車),DEL-8888,北勢派出所,2025-08-01,21:31:06,2060793081,LOC_2704,121.222219,24.942341,,
(租11401)金陵路二段、振平街-8.往金陵路二段14巷(車),DEL-8888,北勢派出所,2025-08-01,21:31:18,2060793071,LOC_2706,121.222666,24.942903,,
(租11401)金陵路二段、振平街-7.往振昌街(車),DEL-8888,北勢派出所,2025-08-01,21:31:41,2060793061,LOC_2705,121.222063,24.943958,,
(租11401)天祥三街與自忠二街、自忠街口-6.往金陵路(車),DEL-8888,龍興派出所,2025-08-01,21:32:16,2000113051,LOC_1799,121.222988,24.946053,,
(租11401)天祥三街與自忠二街、自忠街口-4.往天祥一街(車),DEL-8888,龍興派出所,2025-08-01,21:32:19,2000113031,LOC_1799,121.223061,24.946113,,
(租11401)天祥三街與自忠二街、自忠街口-5.往自忠三街(車),DEL-8888,龍興派出所,2025-08-01,21:32:24,2000113041,LOC_1800,121.223313,24.945952,,
(租11401)天祥三街與自忠二街、自忠街口-3.往天祥二街(車),DEL-8888,龍興派出所,2025-08-01,21:32:27,2000113021,LOC_1798,121.223326,24.946081,,
(租11401)天祥三街與自忠二街、自忠街口-2.往志航街(車),DEL-8888,龍興派出所,2025-08-01,21:32:32,2000113011,LOC_1797,121.223617,24.946014,,
(租11401)志航街與少康一街、二街及執信二街口-9.往銘傳街(車),DEL-8888,龍興派出所,2025-08-01,21:33:08,2000114081,LOC_1809,121.224949,24.94445,,
(租11401)志航街與少康一街、二街及執信二街口-8.往自忠街116巷(車),DEL-8888,龍興派出所,2025-08-01,21:33:14,2000114071,LOC_1808,121.22484,24.944762,,
(租11401)志航街與少康一街、二街及執信二街口-7.往逢甲二街(車),DEL-8888,龍興派出所,2025-08-01,21:33:18,2000114061,LOC_1807,121.224683,24.944995,,
(租11401)志航街與少康一街、二街及執信二街口-6.往吳鳳三街(車),DEL-8888,龍興派出所,2025-08-01,21:33:28,2000114051,LOC_1806,121.224897,24.945502,,
(租11401)志航街與少康一街、二街及執信二街口-5.往吳鳳二街(車),DEL-8888,龍興派出所,2025-08-01,21:33:31,2000114041,LOC_1805,121.225063,24.945481,,
(租11401)龍岡路二段、健行路口-5.往中北路二段(車),DEL-8888,中壢派出所,2025-08-01,21:34:22,2000134041,LOC_2117,121.227677,24.9473,,
(租11402)執信一街與英士一街、皓東街口-3.往龍岡路一段(車),DEL-8888,龍興派出所,2025-08-01,21:34:40,2000181021,LOC_1845,121.227037,24.946971,,
(租11402)執信一街與英士一街、皓東街口-4.往鄒容一街(車),DEL-8888,龍興派出所,2025-08-01,21:34:50,2000181031,LOC_1846,121.227281,24.9465,,
(租11402)龍岡路二段與321巷、龍翔街口-2.往龍岡路二段321巷口(車),DEL-8888,龍興派出所,2025-08-01,21:37:00,2001111011,LOC_1865,121.230052,24.942212,,
(租11402)龍岡路二段321巷39弄口-6.往龍岡路二段321巷1弄口(車),DEL-8888,龍興派出所,2025-08-01,21:37:09,2000193051,LOC_1863,121.230659,24.942092,,
(租11402)龍岡路二段321巷39弄口-4.往龍岡路二段321巷39弄8衖(車),DEL-8888,龍興派出所,2025-08-01,21:37:28,2000193031,LOC_1861,121.231688,24.942295,,
(租11402)龍岡路二段321巷39弄口-3.往龍岡路二段321巷(車),DEL-8888,龍興派出所,2025-08-01,21:37:36,2000193021,LOC_1860,121.231594,24.941984,,
(租11402)龍岡路二段321巷39弄口-2.往龍岡路二段353巷21弄(車),DEL-8888,龍興派出所,2025-08-01,21:37:44,2000193011,LOC_1859,121.231139,24.942059,,
(租11402)龍岡路二段321巷39弄口-5.往龍岡路二段321巷39弄8衖口(車),DEL-8888,龍興派出所,2025-08-01,21:37:49,2000193041,LOC_1862,121.231131,24.942336,,
(租11401)環中東路二段、後興路二段口-2.往成都路(車),DEL-8888,普仁派出所,2025-08-01,21:38:49,2000141111,LOC_2081,121.231163,24.945162,,
(租11401)環中東路二段、吉長街口-3.往昆明街(車),DEL-8888,普仁派出所,2025-08-01,21:38:56,2000141021,LOC_2079,121.23096,24.945351,,
(租11401)環中東路二段、吉長街口-2.往昆明街(車),DEL-8888,普仁派出所,2025-08-01,21:38:57,2000141011,LOC_2079,121.230944,24.945361,,
(租11401)環中東路、龍岡路口-4.往林森路(車),DEL-8888,龍興派出所,2025-08-01,21:39:40,2000140031,LOC_1827,121.229213,24.944372,,
(租11401)環中東路、龍岡路口-6.往台灣中油(龍岡站)(車),DEL-8888,龍興派出所,2025-08-01,21:40:00,2000140051,LOC_1829,121.229979,24.944198,,
(租11401)環中東路、龍岡路口-5.往龍岡路三段(車),DEL-8888,龍興派出所,2025-08-01,21:40:05,2000140041,LOC_1828,121.229696,24.944169,,
(租11401)環中東路、龍岡路口-3.往後興路(車),DEL-8888,龍興派出所,2025-08-01,21:40:11,2000140021,LOC_1826,121.229749,24.944573,,
(租11401)環中東路、龍岡路口-2.往健行路(車),DEL-8888,龍興派出所,2025-08-01,21:40:20,2000140011,LOC_1825,121.229431,24.945089,,
(租11401)龍岡路二段、健行路口-4.往環中東路二段(車),DEL-8888,中壢派出所,2025-08-01,21:40:53,2000134031,LOC_2115,121.228904,24.946377,,
(租11402)大觀路三段(台15)、工業八路(一)-3.往成功路(車),DEL-8888,草漯派出所,2025-08-01,22:32:53,2020788021,LOC_1006,121.115167,25.036174,,
(租11402)大觀路三段(台15)、工業八路(一)-3.往成功路(車),DEL-8888,草漯派出所,2025-08-03,20:48:00,2020788021,LOC_1006,121.115167,25.036174,,
(租11401)瑞安路一段(台4)、瑞安路一段266巷-5.往大溪橋頭旁中油(車),DEL-8888,中新派出所,2025-08-03,21:50:42,2030459041,LOC_1296,121.275863,24.879,,
(租11401)瑞安路一段(台4)、瑞安路一段266巷-4.往崁津部落(車),DEL-8888,中新派出所,2025-08-03,21:50:50,2030459031,LOC_1295,121.276099,24.878577,,
(租11401)瑞安路一段(台4)、瑞安路一段266巷-2.往康莊路(車),DEL-8888,中新派出所,2025-08-03,21:51:05,2030459011,LOC_1293,121.275477,24.878215,,
(租11402)三元一街(桃64)、齋明街46巷-3.往三元一街往大鶯路(車),DEL-8888,三元派出所,2025-08-03,21:52:23,2030455021,LOC_1514,121.275154,24.88316,,
(租11402)三元一街(桃64)、齋明街46巷-4.往三元一街往員林路二段(車),DEL-8888,三元派出所,2025-08-03,21:52:49,2030455031,LOC_1515,121.273643,24.883435,,
(租11401)三元二街、三元一街46巷-3.往三元一街(車),DEL-8888,三元派出所,2025-08-03,21:54:36,2030399021,LOC_1493,121.269665,24.882264,,
(租11401)三元二街、三元一街46巷-4.往三元二街(車),DEL-8888,三元派出所,2025-08-03,21:54:44,2030399031,LOC_1494,121.269407,24.881955,,
(租11401)三元二街二巷1弄-4.往員林路二段(車),DEL-8888,三元派出所,2025-08-03,21:54:55,2030398031,LOC_1495,121.269252,24.881605,,
(租11401)三元三街12巷延伸至三街69號-4.往三元二街(車),DEL-8888,三元派出所,2025-08-03,21:55:05,2030400031,LOC_1501,121.268715,24.88172,,
(租11401)員林路二段(台3)、三元一街(桃64)-3.往三元一街2巷(車),DEL-8888,三元派出所,2025-08-03,21:55:51,2030414021,LOC_1504,121.268426,24.883843,,
(租11401)員林路二段(台3)、三元一街(桃64)-5.往龍潭(車),DEL-8888,三元派出所,2025-08-03,21:56:04,2030414041,LOC_1502,121.268053,24.884231,,
(租11401)員林路二段(台3)、三元一街(桃64)-4.往員林路二段382巷(車),DEL-8888,三元派出所,2025-08-03,21:56:16,2030414031,LOC_1505,121.267604,24.884782,,
(租11401)南興路二段(桃64)、南興路二段52巷-4.往國3高架橋下(車),DEL-8888,圳頂派出所,2025-08-03,22:00:09,2030413031,LOC_1550,121.262324,24.893334,,
(租11401)南興路二段(桃64)、南興路二段52巷-2.往永昌路(車),DEL-8888,圳頂派出所,2025-08-03,22:00:33,2030413011,LOC_1548,121.261838,24.89448,,
(租11401)南興路二段(桃64)、南興路二段52巷-3.往興昌路二段(車),DEL-8888,圳頂派出所,2025-08-03,22:00:48,2030413021,LOC_1549,121.261253,24.894282,,
(租11402)永昌路(台七)、南興路一段口(二)-3.往永昌路外車道往國道三號(車),DEL-8888,圳頂派出所,2025-08-03,22:01:12,2030951021,LOC_1568,121.261901,24.895184,,
(租11402)永昌路(台七)、南興路一段口(二)-2.往永昌路內車道往國道三號(車),DEL-8888,圳頂派出所,2025-08-03,22:01:12,2030951011,LOC_1568,121.261919,24.895186,,
(租11401)永昌路(台七)、南興路一段口(一)-4.往南興路二段(車),DEL-8888,圳頂派出所,2025-08-03,22:01:20,2030952031,LOC_1544,121.262338,24.895401,,
(租11401)永昌路(台七)、南興路一段口(一)-3.往永昌路外車道(車),DEL-8888,圳頂派出所,2025-08-03,22:01:29,2030952021,LOC_1543,121.262002,24.895824,,
(租11401)永昌路(台七)、南興路一段口(一)-2.往永昌路內車道(車),DEL-8888,圳頂派出所,2025-08-03,22:01:30,2030952011,LOC_1543,121.261965,24.895825,,
(租11401)南興路一段(桃64)、南興路151巷-3.往南興路一段(車),DEL-8888,圳頂派出所,2025-08-03,22:03:09,2030412021,LOC_1545,121.265003,24.899195,,
(租11401)南興路一段(桃64)、南興路151巷-4.往仁和路二段149巷(車),DEL-8888,圳頂派出所,2025-08-03,22:03:12,2030412031,LOC_1547,121.265213,24.899229,,
(租11401)南興路一段(桃64)、南興路151巷-2.往永昌路(車),DEL-8888,圳頂派出所,2025-08-03,22:03:34,2030412011,LOC_1546,121.264862,24.899928,,
(租11401)興昌路、興昌路一段310巷-3.往興昌路(車),DEL-8888,圳頂派出所,2025-08-03,22:06:46,2030422021,LOC_1557,121.255647,24.901932,,
(租11401)興昌路、興昌路一段310巷-4.往仁和路二段(車),DEL-8888,圳頂派出所,2025-08-03,22:06:55,2030422031,LOC_1558,121.255687,24.902474,,
(租11401)興昌路、興昌路一段310巷-2.往平鎮東龍路(車),DEL-8888,圳頂派出所,2025-08-03,22:07:16,2030422011,LOC_1556,121.254262,24.902139,,
(租11401)仁和路二段(市112)、仁和路二段459巷-4.往英業達(車),DEL-8888,圳頂派出所,2025-08-03,22:10:03,2030405031,LOC_1533,121.258479,24.908337,,
(租11401)仁和路二段(市112)、仁和路二段459巷-3.往鍾氏祠堂(車),DEL-8888,圳頂派出所,2025-08-03,22:10:10,2030405021,LOC_1532,121.258304,24.908597,,
(租11401)仁和路二段(市112)、仁和路二段459巷-2.往平鎮龍南路(車),DEL-8888,圳頂派出所,2025-08-03,22:10:15,2030405011,LOC_1531,121.258041,24.908649,,
(租11401)仁和路二段、仁和路二段517巷-2.往仁和路二段509巷(車),DEL-8888,圳頂派出所,2025-08-03,22:10:35,2030406011,LOC_1527,121.257091,24.909043,,
(租11401)仁和路二段、仁和路二段517巷-4.往平鎮龍南路(車),DEL-8888,圳頂派出所,2025-08-03,22:10:45,2030406031,LOC_1529,121.25695,24.90945,,
(租11401)仁和路二段、仁和路二段517巷-3.往仁和路二段517巷(車),DEL-8888,圳頂派出所,2025-08-03,22:10:58,2030406021,LOC_1528,121.256359,24.909189,,
(租11401)星友街42巷頭、尾-3.往東光路201巷(車),DEL-8888,建安派出所,2025-08-03,22:12:27,2060480021,LOC_3023,121.254061,24.914572,,
(租11401)星友街42巷頭、尾-4.往東光路(車),DEL-8888,建安派出所,2025-08-03,22:13:16,2060480031,LOC_3024,121.254006,24.916341,,
(租11402)東光路18巷口-4.往星友街(車),DEL-8888,建安派出所,2025-08-03,22:13:38,2060510031,LOC_3039,121.253464,24.917183,,
(租11402)東光路18巷口-3.往東光路內(車),DEL-8888,建安派出所,2025-08-03,22:13:48,2060510021,LOC_3040,121.253612,24.917741,,
(租11401)平東路68巷、86巷-5.往東光路(車),DEL-8888,建安派出所,2025-08-03,22:14:06,2060470041,LOC_2998,121.252424,24.917813,,
(租11401)平東路68巷、86巷-4.往平東路61巷(車),DEL-8888,建安派出所,2025-08-03,22:14:10,2060470031,LOC_2996,121.252273,24.917706,,
(租11401)平東路68巷、86巷-3.往平東路61巷(車),DEL-8888,建安派出所,2025-08-03,22:14:12,2060470021,LOC_2996,121.252264,24.917632,,
(租11401)平東路68巷、86巷-6.往平東路86巷18弄(車),DEL-8888,建安派出所,2025-08-03,22:14:18,2060470051,LOC_2999,121.252157,24.917854,,
(租11401)平東路68巷、86巷-2.往新華北路(車),DEL-8888,建安派出所,2025-08-03,22:14:29,2060470011,LOC_2997,121.251738,24.917492,,
(租11402)龍南路、龍南路430巷口-3.往龍南路430巷7弄口(車),DEL-8888,建安派出所,2025-08-03,22:15:26,2060540021,LOC_3066,121.252612,24.920218,,
(租11402)龍南路、龍南路430巷口-4.往龍安路(車),DEL-8888,建安派出所,2025-08-03,22:15:33,2060540031,LOC_3067,121.252689,24.920514,,
(租11402)龍南路、龍南路430巷口-2.往新生路600巷內(車),DEL-8888,建安派出所,2025-08-03,22:15:44,2060540011,LOC_3065,121.25331,24.920603,,
(租11402)龍安路、龍安路36巷口-4.往龍南路430巷(車),DEL-8888,龍岡派出所,2025-08-03,22:16:26,2060539031,LOC_3096,121.250692,24.920672,,
(租11402)龍安路、龍安路36巷口-3.往龍南路(車),DEL-8888,龍岡派出所,2025-08-03,22:16:36,2060539021,LOC_3095,121.250319,24.920976,,
(租11402)龍安路、龍安路36巷口-2.往龍安路36巷內(車),DEL-8888,龍岡派出所,2025-08-03,22:16:49,2060539011,LOC_3094,121.249467,24.921233,,
(租11402)龍南路193巷、188巷口-3.往龍南路188巷內(車),DEL-8888,龍岡派出所,2025-08-03,22:17:38,2060541021,LOC_3099,121.248113,24.923269,,
(租11402)龍南路193巷、188巷口-4.往龍南路176巷內(車),DEL-8888,龍岡派出所,2025-08-03,22:17:42,2060541031,LOC_3097,121.247889,24.923371,,
(租11402)龍南路193巷、188巷口-4.往龍南路176巷內(車),DEL-8888,龍岡派出所,2025-08-03,22:17:42,2060541031,LOC_3097,121.247889,24.923371,,
(租11402)龍南路193巷、188巷口-3.往龍南路188巷內(車),DEL-8888,龍岡派出所,2025-08-03,22:17:46,2060541021,LOC_3099,121.248113,24.923269,,
(租11402)龍安路、龍安路36巷口-2.往龍安路36巷內(車),DEL-8888,龍岡派出所,2025-08-03,22:18:33,2060539011,LOC_3094,121.249467,24.921233,,
(租11402)龍安路、龍安路36巷口-3.往龍南路(車),DEL-8888,龍岡派出所,2025-08-03,22:18:46,2060539021,LOC_3095,121.250319,24.920976,,
(租11402)龍安路、龍安路36巷口-4.往龍南路430巷(車),DEL-8888,龍岡派出所,2025-08-03,22:18:59,2060539031,LOC_3096,121.250692,24.920672,,
(租11402)龍南路、龍南路430巷口-2.往新生路600巷內(車),DEL-8888,建安派出所,2025-08-03,22:19:45,2060540011,LOC_3065,121.25331,24.920603,,
(租11402)龍南路、龍南路430巷口-4.往龍安路(車),DEL-8888,建安派出所,2025-08-03,22:19:58,2060540031,LOC_3067,121.252689,24.920514,,
(租11402)龍南路、龍南路430巷口-3.往龍南路430巷7弄口(車),DEL-8888,建安派出所,2025-08-03,22:20:04,2060540021,LOC_3066,121.252612,24.920218,,
(租11401)平東路68巷、86巷-2.往新華北路(車),DEL-8888,建安派出所,2025-08-03,22:20:55,2060470011,LOC_2997,121.251738,24.917492,,
(租11401)平東路68巷、86巷-6.往平東路86巷18弄(車),DEL-8888,建安派出所,2025-08-03,22:21:08,2060470051,LOC_2999,121.252157,24.917854,,
(租11401)平東路68巷、86巷-3.往平東路61巷(車),DEL-8888,建安派出所,2025-08-03,22:21:13,2060470021,LOC_2996,121.252264,24.917632,,
(租11401)平東路68巷、86巷-4.往平東路61巷(車),DEL-8888,建安派出所,2025-08-03,22:21:15,2060470031,LOC_2996,121.252273,24.917706,,
(租11401)平東路68巷、86巷-5.往東光路(車),DEL-8888,建安派出所,2025-08-03,22:21:18,2060470041,LOC_2998,121.252424,24.917813,,
(租11402)東光路18巷口-3.往東光路內(車),DEL-8888,建安派出所,2025-08-03,22:21:35,2060510021,LOC_3040,121.253612,24.917741,,
(租11402)東光路18巷口-4.往星友街(車),DEL-8888,建安派出所,2025-08-03,22:21:48,2060510031,LOC_3039,121.253464,24.917183,,
(租11401)星友街42巷頭、尾-4.往東光路(車),DEL-8888,建安派出所,2025-08-03,22:22:11,2060480031,LOC_3024,121.254006,24.916341,,
(租11401)星友街42巷頭、尾-3.往東光路201巷(車),DEL-8888,建安派出所,2025-08-03,22:23:00,2060480021,LOC_3023,121.254061,24.914572,,
(租11401)仁和路二段、仁和路二段517巷-3.往仁和路二段517巷(車),DEL-8888,圳頂派出所,2025-08-03,22:24:35,2030406021,LOC_1528,121.256359,24.909189,,
(租11401)仁和路二段、仁和路二段517巷-4.往平鎮龍南路(車),DEL-8888,圳頂派出所,2025-08-03,22:24:46,2030406031,LOC_1529,121.25695,24.90945,,
(租11401)仁和路二段、仁和路二段517巷-2.往仁和路二段509巷(車),DEL-8888,圳頂派出所,2025-08-03,22:24:55,2030406011,LOC_1527,121.257091,24.909043,,
(租11401)仁和路二段(市112)、仁和路二段459巷-2.往平鎮龍南路(車),DEL-8888,圳頂派出所,2025-08-03,22:25:10,2030405011,LOC_1531,121.258041,24.908649,,
(租11401)仁和路二段(市112)、仁和路二段459巷-3.往鍾氏祠堂(車),DEL-8888,圳頂派出所,2025-08-03,22:25:14,2030405021,LOC_1532,121.258304,24.908597,,
(租11401)仁和路二段(市112)、仁和路二段459巷-4.往英業達(車),DEL-8888,圳頂派出所,2025-08-03,22:25:20,2030405031,LOC_1533,121.258479,24.908337,,
(租11401)興昌路、興昌路一段310巷-2.往平鎮東龍路(車),DEL-8888,圳頂派出所,2025-08-03,22:27:52,2030422011,LOC_1556,121.254262,24.902139,,
(租11401)興昌路、興昌路一段310巷-4.往仁和路二段(車),DEL-8888,圳頂派出所,2025-08-03,22:28:14,2030422031,LOC_1558,121.255687,24.902474,,
(租11401)興昌路、興昌路一段310巷-3.往興昌路(車),DEL-8888,圳頂派出所,2025-08-03,22:28:29,2030422021,LOC_1557,121.255647,24.901932,,
(租11401)南興路一段(桃64)、南興路151巷-2.往永昌路(車),DEL-8888,圳頂派出所,2025-08-03,22:30:52,2030412011,LOC_1546,121.264862,24.899928,,
(租11401)南興路一段(桃64)、南興路151巷-4.往仁和路二段149巷(車),DEL-8888,圳頂派出所,2025-08-03,22:31:13,2030412031,LOC_1547,121.265213,24.899229,,
(租11401)南興路一段(桃64)、南興路151巷-3.往南興路一段(車),DEL-8888,圳頂派出所,2025-08-03,22:31:16,2030412021,LOC_1545,121.265003,24.899195,,
(租11401)永昌路(台七)、南興路一段口(一)-2.往永昌路內車道(車),DEL-8888,圳頂派出所,2025-08-03,22:32:32,2030952011,LOC_1543,121.261965,24.895825,,
(租11401)永昌路(台七)、南興路一段口(一)-3.往永昌路外車道(車),DEL-8888,圳頂派出所,2025-08-03,22:32:33,2030952021,LOC_1543,121.262002,24.895824,,
(租11401)永昌路(台七)、南興路一段口(一)-4.往南興路二段(車),DEL-8888,圳頂派出所,2025-08-03,22:32:43,2030952031,LOC_1544,121.262338,24.895401,,
(租11402)永昌路(台七)、南興路一段口(二)-2.往永昌路內車道往國道三號(車),DEL-8888,圳頂派出所,2025-08-03,22:32:50,2030951011,LOC_1568,121.261919,24.895186,,
(租11402)永昌路(台七)、南興路一段口(二)-3.往永昌路外車道往國道三號(車),DEL-8888,圳頂派出所,2025-08-03,22:32:51,2030951021,LOC_1568,121.261901,24.895184,,
(租11401)南興路二段(桃64)、南興路二段52巷-3.往興昌路二段(車),DEL-8888,圳頂派出所,2025-08-03,22:33:08,2030413021,LOC_1549,121.261253,24.894282,,
(租11401)南興路二段(桃64)、南興路二段52巷-2.往永昌路(車),DEL-8888,圳頂派出所,2025-08-03,22:33:21,2030413011,LOC_1548,121.261838,24.89448,,
(租11401)南興路二段(桃64)、南興路二段52巷-4.往國3高架橋下(車),DEL-8888,圳頂派出所,2025-08-03,22:33:45,2030413031,LOC_1550,121.262324,24.893334,,
(租11401)員林路二段(台3)、三元一街(桃64)-4.往員林路二段382巷(車),DEL-8888,三元派出所,2025-08-03,22:36:40,2030414031,LOC_1505,121.267604,24.884782,,
(租11401)員林路二段(台3)、三元一街(桃64)-5.往龍潭(車),DEL-8888,三元派出所,2025-08-03,22:36:53,2030414041,LOC_1502,121.268053,24.884231,,
(租11401)員林路二段(台3)、三元一街(桃64)-3.往三元一街2巷(車),DEL-8888,三元派出所,2025-08-03,22:37:02,2030414021,LOC_1504,121.268426,24.883843,,
(租11401)三元三街12巷延伸至三街69號-4.往三元二街(車),DEL-8888,三元派出所,2025-08-03,22:37:40,2030400031,LOC_1501,121.268715,24.88172,,
(租11401)三元二街二巷1弄-4.往員林路二段(車),DEL-8888,三元派出所,2025-08-03,22:37:54,2030398031,LOC_1495,121.269252,24.881605,,
(租11401)三元二街、三元一街46巷-4.往三元二街(車),DEL-8888,三元派出所,2025-08-03,22:38:00,2030399031,LOC_1494,121.269407,24.881955,,
(租11401)三元二街、三元一街46巷-3.往三元一街(車),DEL-8888,三元派出所,2025-08-03,22:38:11,2030399021,LOC_1493,121.269665,24.882264,,
(租11402)三元一街(桃64)、齋明街46巷-4.往三元一街往員林路二段(車),DEL-8888,三元派出所,2025-08-03,22:39:58,2030455031,LOC_1515,121.273643,24.883435,,
(租11402)三元一街(桃64)、齋明街46巷-3.往三元一街往大鶯路(車),DEL-8888,三元派出所,2025-08-03,22:40:22,2030455021,LOC_1514,121.275154,24.88316,,
(租11401)瑞安路一段(台4)、瑞安路一段266巷-2.往康莊路(車),DEL-8888,中新派出所,2025-08-03,22:41:44,2030459011,LOC_1293,121.275477,24.878215,,
(租11401)瑞安路一段(台4)、瑞安路一段266巷-4.往崁津部落(車),DEL-8888,中新派出所,2025-08-03,22:42:01,2030459031,LOC_1295,121.276099,24.878577,,
(租11401)瑞安路一段(台4)、瑞安路一段266巷-5.往大溪橋頭旁中油(車),DEL-8888,中新派出所,2025-08-03,22:42:13,2030459041,LOC_1296,121.275863,24.879,,
(租11402)大觀路三段(台15)、工業八路(一)-3.往成功路(車),DEL-8888,草漯派出所,2025-08-03,23:42:22,2020788021,LOC_1006,121.115167,25.036174,,
(租11402)廣福路1357巷206弄口-4.往廣福路1357巷280弄往永豐南路31巷(車),NOR-1001,高明派出所,2025-08-04,07:15:00,2080650031,LOC_3636,121.271883,24.953865,,
(租11402)廣福路1357巷206弄口-2.往廣福路1357巷往廣福路(車),NOR-1001,高明派出所,2025-08-04,07:15:08,2080650011,LOC_3634,121.271339,24.95408,,
(租11402)廣福路1357巷206弄口-3.往廣福路1357巷206弄往永豐南路31巷(車),NOR-1001,高明派出所,2025-08-04,07:15:24,2080650021,LOC_3635,121.271808,24.953303,,
(租11402)廣福路1357巷與永豐南路31巷(延伸永豐南路31巷280弄口)-3.往永豐南路31巷往永豐南路31巷280弄(車),NOR-1001,高明派出所,2025-08-04,07:17:33,2080651021,LOC_3639,121.27708,24.953902,,
(租11402)廣福路1357巷與永豐南路31巷(延伸永豐南路31巷280弄口)-4.往永豐南路31巷往永豐路(車),NOR-1001,高明派出所,2025-08-04,07:18:08,2080651031,LOC_3640,121.277093,24.955645,,
(租11402)廣福路1357巷與永豐南路31巷(延伸永豐南路31巷280弄口)-5.往廣福路879巷192弄往廣福路879巷(車),NOR-1001,高明派出所,2025-08-04,07:18:11,2080651041,LOC_3641,121.276976,24.955713,,
(租11402)廣興路1360巷80弄口-4.往廣興路1360巷往溪墘街(車),NOR-1001,廣興派出所,2025-08-04,07:19:12,2080653031,LOC_3405,121.279342,24.954982,,
(租11402)廣興路1360巷80弄口-3.往廣興路1360巷往永豐南路(車),NOR-1001,廣興派出所,2025-08-04,07:19:47,2080653021,LOC_3403,121.280675,24.956095,,
(租11402)廣興路與廣興路1156巷口-4.往廣興路往廣福路(車),NOR-1001,廣興派出所,2025-08-04,07:20:47,2080654031,LOC_3409,121.28346,24.9546,,
(租11402)廣興路與廣興路1156巷口-3.往廣興路往新興路(車),NOR-1001,廣興派出所,2025-08-04,07:20:55,2080654021,LOC_3408,121.283674,24.954153,,
(租11402)廣興路與廣興路1156巷口-5.往廣興路1156巷往廣福路(車),NOR-1001,廣興派出所,2025-08-04,07:21:16,2080654041,LOC_3410,121.284483,24.955269,,
(租11401)廣福路與廣福路451巷口 (含483、499巷口)-3.往力霸街(車),NOR-1001,廣興派出所,2025-08-04,07:23:12,2080616021,LOC_3355,121.288328,24.959348,,
(租11401)廣福路與廣福路451巷口 (含483、499巷口)-5.往廣興路(車),NOR-1001,廣興派出所,2025-08-04,07:23:21,2080616041,LOC_3353,121.288341,24.959896,,
(租11401)廣福路與廣福路451巷口 (含483、499巷口)-4.往大湳(車),NOR-1001,廣興派出所,2025-08-04,07:23:30,2080616031,LOC_3356,121.288793,24.959853,,
(租11402)廣福路與廣隆街口-6.往廣隆街往廣福路(車),NOR-1001,廣興派出所,2025-08-04,07:24:19,2080652051,LOC_3402,121.292179,24.959346,,
(租11402)廣福路與廣隆街口-5.往廣隆街往建國路(車),NOR-1001,廣興派出所,2025-08-04,07:24:25,2080652041,LOC_3399,121.292153,24.959094,,
(租11402)中路街與中路南街口-5.往中路南街往國際路(車),NOR-1001,廣興派出所,2025-08-04,07:25:47,2080620041,LOC_3371,121.294327,24.961177,,
(租11402)中路街與中路南街口-6.往中路北街往國際二路(車),NOR-1001,廣興派出所,2025-08-04,07:25:54,2080620051,LOC_3372,121.294295,24.961488,,
(租11401)國際一路88號前路口 (延伸至國際一、二路口)-7.往國際一路往中路街(車),NOR-1001,中路派出所,2025-08-04,07:26:17,2010076061,LOC_0344,121.293306,24.961889000000003,,
(租11401)國際一路88號前路口 (延伸至國際一、二路口)-6.往國際二路往中路北街(車),NOR-1001,中路派出所,2025-08-04,07:26:25,2010076051,LOC_0343,121.293647,24.962301,,
(租11402)中路街與中路南街口-4.往國際一路往國際路一段(車),NOR-1001,廣興派出所,2025-08-04,07:26:33,2080620031,LOC_3370,121.293343,24.962521,,
(租11401)國際一路88號前路口 (延伸至國際一、二路口)-5.往中路北街67巷(車),NOR-1001,中路派出所,2025-08-04,07:26:53,2010076041,LOC_0342,121.293488,24.963336,,
(租11401)國際一路88號前路口 (延伸至國際一、二路口)-8.往國際路一段往國豐街(車),NOR-1001,中路派出所,2025-08-04,07:27:15,2010076071,LOC_0345,121.292439,24.963559,,
(租11401)國際路一段141巷與桃德路39巷口-6.往國際路一段120巷(車),NOR-1001,中路派出所,2025-08-04,07:27:34,2010078051,LOC_0351,121.292855,24.964712,,
(租11401)國際路一段141巷與桃德路39巷口-4.往桃德路39巷(車),NOR-1001,中路派出所,2025-08-04,07:27:57,2010078031,LOC_0349,121.292683,24.965737,,
(租11401)國際路一段141巷與桃德路39巷口-3.往國際路一段往桃園(車),NOR-1001,中路派出所,2025-08-04,07:28:04,2010078021,LOC_0348,121.292196,24.96585,,
(租11401)國際路一段141巷與桃德路39巷口-5.往國際路一段141巷(車),NOR-1001,中路派出所,2025-08-04,07:28:22,2010078041,LOC_0350,121.291792,24.96517,,
(租11402)國際路一段262巷與桃德路113巷-4.往八德(車),NOR-1001,中路派出所,2025-08-04,07:29:26,2010079031,LOC_0408,121.292344,24.967785,,
(租11402)國際路一段262巷與桃德路113巷-5.往桃德路(車),NOR-1001,中路派出所,2025-08-04,07:29:30,2010079041,LOC_0409,121.29252,24.96796,,
(租11402)國際路一段308號前Y字型路口-4.往八德(車),NOR-1001,中路派出所,2025-08-04,07:29:50,2010080031,LOC_0413,121.291523,24.968309,,
(租11401)大興路、上興路-3.往大新路(車),NOR-1004,大竹派出所,2025-08-04,07:56:00,2100802021,LOC_3967,121.256105,25.018507,,
(租11401)大興路、上興路-5.往中興路(車),NOR-1004,大竹派出所,2025-08-04,07:56:05,2100802041,LOC_3969,121.256282,25.018269,,
(租11401)大興路、上興路-4.往大新一街(車),NOR-1004,大竹派出所,2025-08-04,07:56:15,2100802031,LOC_3968,121.256593,25.018621,,
(租11401)大新一街與上興路口-5.上興路往大興路(車),NOR-1004,大竹派出所,2025-08-04,07:56:32,2100803141,LOC_3945,121.257391,25.018888,,
(租11401)大新一街與上興路口-6.往大福路(車),NOR-1004,大竹派出所,2025-08-04,07:56:37,2100803151,LOC_3946,121.257607,25.018998,,
(租11401)大新一街與上興路口-4.大新一街往大興八街(車),NOR-1004,大竹派出所,2025-08-04,07:56:46,2100803131,LOC_3944,121.257604,25.018616,,
(租11401)大新一街與上興路口-3.豪登一街往大興八街(車),NOR-1004,大竹派出所,2025-08-04,07:57:00,2100803121,LOC_3943,121.25831,25.018802,,
(租11401)大新一街與上興路口-2.豪登一街往大福路(車),NOR-1004,大竹派出所,2025-08-04,07:57:05,2100803111,LOC_3942,121.258302,25.019061,,
(租11401)上興路、興中街-2.往大福路(車),NOR-1004,大竹派出所,2025-08-04,07:57:23,2100803011,LOC_3934,121.25949,25.019076,,
(租11401)上興路、興中街-3.往興仁路(車),NOR-1004,大竹派出所,2025-08-04,07:57:28,2100803021,LOC_3935,121.259612,25.018846,,
(租11401)上興路、興中街-4.往大興八街(車),NOR-1004,大竹派出所,2025-08-04,07:57:33,2100803031,LOC_3936,121.259453,25.018569,,
(租11401)大福路、興仁路-3.往大興路(車),NOR-1004,大竹派出所,2025-08-04,07:58:37,2100806021,LOC_3949,121.260122,25.020842,,
(租11401)大福路、興仁路-2.往上興路(車),NOR-1004,大竹派出所,2025-08-04,07:58:44,2100806011,LOC_3948,121.260614,25.02079,,
(租11401)大福路、興仁路-4.往大竹路(車),NOR-1004,大竹派出所,2025-08-04,07:58:51,2100806031,LOC_3950,121.260483,25.021158,,
(租11402)興仁路5巷與大竹一街-5.往興仁路(車),NOR-1004,大竹派出所,2025-08-04,07:59:16,2100752041,LOC_4055,121.261762,25.020473,,
(租11402)興仁路5巷與大竹一街-4.往福興街(車),NOR-1004,大竹派出所,2025-08-04,07:59:23,2100752031,LOC_4054,121.261919,25.020254,,
(租11402)興仁路5巷與大竹一街-2.往大竹路449巷(車),NOR-1004,大竹派出所,2025-08-04,07:59:31,2100752011,LOC_4052,121.261944,25.02081,,
(租11402)興仁路5巷與大竹一街-3.往上竹五街(車),NOR-1004,大竹派出所,2025-08-04,07:59:45,2100752021,LOC_4053,121.262595,25.020453,,
(租11402)大竹路、上竹一街、上竹二街口-4.往竹中街(車),NOR-1004,大竹派出所,2025-08-04,08:00:46,2100716031,LOC_3986,121.266272,25.019519,,
(租11402)大竹路、上竹一街、上竹二街口-3.往竹中街(車),NOR-1004,大竹派出所,2025-08-04,08:01:05,2100716021,LOC_3985,121.266855,25.0189,,
(租11402)大竹路288巷、314巷-6.往上竹路(車),NOR-1004,大竹派出所,2025-08-04,08:01:39,2100717051,LOC_3992,121.268234,25.018362,,
(租11401)大竹路288巷28號-2.往上竹路(車),NOR-1004,大竹派出所,2025-08-04,08:02:04,2100906011,LOC_3938,121.269437,25.018452,,
(租11402)大興一街與興仁路口-2.往大興八街(車),NOR-1004,大竹派出所,2025-08-04,08:04:18,2100723011,LOC_4019,121.262376,25.014441,,
(租11402)大興一街與興仁路口-3.往大興二街(車),NOR-1004,大竹派出所,2025-08-04,08:04:24,2100723021,LOC_4020,121.262019,25.014476,,
(租11402)大興一街與興仁路口-4.往中興六街(車),NOR-1004,大竹派出所,2025-08-04,08:04:32,2100723031,LOC_4021,121.262003,25.01411,,
(租11402)大福路與大新一街口(一)-2.往福興街(車),NOR-1004,大竹派出所,2025-08-04,08:06:29,2100721011,LOC_4014,121.257627,25.020427,,
(租11402)大福路與大新一街口(一)-4.往豪登一街(車),NOR-1004,大竹派出所,2025-08-04,08:06:37,2100721031,LOC_4016,121.25779,25.020688,,
(租11402)大福路與大新一街口(一)-3.往大興十一街(車),NOR-1004,大竹派出所,2025-08-04,08:06:43,2100721021,LOC_4015,121.257569,25.020881,,
(租11402)大福路與大新一街口(一)-5.往大新三街(車),NOR-1004,大竹派出所,2025-08-04,08:06:50,2100721041,LOC_4017,121.257295,25.020669,,
(租11401)大興十一街、大新一街-2.往大福路(車),NOR-1004,大竹派出所,2025-08-04,08:07:17,2100804011,LOC_3952,121.257081,25.0224,,
(租11401)泰圳路、泰圳路200巷口-5.往泰圳路222巷(車),NOR-1003,上湖派出所,2025-08-04,08:33:00,2050225041,LOC_2258,121.112439,24.906033,,
(租11401)泰圳路、泰圳路200巷口-4.往泰圳路200巷(車),NOR-1003,上湖派出所,2025-08-04,08:33:04,2050225031,LOC_2257,121.112383,24.906291,,
(租11401)泰圳路、泰圳路200巷口-3.往泰圳路190巷(車),NOR-1003,上湖派出所,2025-08-04,08:33:19,2050225021,LOC_2256,121.112687,24.906846,,
(租11401)泰圳路、泰圳路200巷口-2.往泰圳路177巷(車),NOR-1003,上湖派出所,2025-08-04,08:33:23,2050225011,LOC_2255,121.11292,24.906736,,
(租11402)泰圳路、上湖一路口-2.往泰圳路684巷(車),NOR-1003,上湖派出所,2025-08-04,08:36:25,2050278011,LOC_2267,121.104763,24.903042,,
(租11402)泰圳路、上湖一路口-3.往三湖路(車),NOR-1003,上湖派出所,2025-08-04,08:36:35,2050278021,LOC_2268,121.104178,24.903201,,
(租11402)泰圳路、上湖一路口-4.往泰圳路820巷(車),NOR-1003,上湖派出所,2025-08-04,08:36:55,2050278031,LOC_2269,121.104487,24.902158,,
(租11402)泰圳路、上湖二路-3.往泰圳路820巷(車),NOR-1003,上湖派出所,2025-08-04,08:42:37,2050915021,LOC_2272,121.091929,24.895914,,
(租11402)泰圳路、上湖二路-4.往楊湖路二段719巷(車),NOR-1003,上湖派出所,2025-08-04,08:42:44,2050915031,LOC_2273,121.091519,24.895929,,
(租11402)泰圳路、上湖二路-2.往八德路三段135巷(車),NOR-1003,上湖派出所,2025-08-04,08:42:50,2050915011,LOC_2271,121.091617,24.895593,,
(租11402)泰圳路、泰圳路1450巷口-3.往新竹(車),NOR-1003,上湖派出所,2025-08-04,08:43:18,2050279021,LOC_2276,121.090044,24.895009,,
(租11402)泰圳路、泰圳路1450巷口-2.往新竹(車),NOR-1003,上湖派出所,2025-08-04,08:43:22,2050279011,LOC_2275,121.090011,24.894771,,
(租11401)高鐵南路十段、上湖二路口(二)-5.往上湖二路300巷(車),NOR-1003,上湖派出所,2025-08-04,08:48:51,2050227041,LOC_2262,121.086218,24.906585,,
(租11402)高鐵南路十段、上湖二路口(一)-2.高鐵南路十段往新竹內車道(車),NOR-1003,上湖派出所,2025-08-04,08:49:06,2050284011,LOC_2279,121.085912,24.907078,,
(租11402)高鐵南路十段、上湖二路口(一)-3.高鐵南路十段往新竹外車道(車),NOR-1003,上湖派出所,2025-08-04,08:49:06,2050284021,LOC_2279,121.085887,24.90709,,
(租11401)高鐵南路十段、上湖二路口(二)-3.高鐵南路十段往楊湖路三段外車道(車),NOR-1003,上湖派出所,2025-08-04,08:49:14,2050227021,LOC_2260,121.08628,24.907347,,
(租11401)高鐵南路十段、上湖二路口(二)-2.高鐵南路十段往楊湖路三段內車道(車),NOR-1003,上湖派出所,2025-08-04,08:49:14,2050227011,LOC_2260,121.086287,24.907363,,
(租11401)高鐵南路十段、上湖二路口(二)-4.往上湖三路421巷(車),NOR-1003,上湖派出所,2025-08-04,08:49:23,2050227031,LOC_2261,121.08664,24.907246,,
(租11402)高鐵南路十段、上湖二路口(一)-4.往上湖二路90巷(車),NOR-1003,上湖派出所,2025-08-04,08:49:37,2050284031,LOC_2280,121.085877,24.907574,,
(租11402)高鐵南路十段、上湖二路口(一)-5.往楊湖路三段875巷(車),NOR-1003,上湖派出所,2025-08-04,08:49:53,2050284041,LOC_2281,121.08517,24.907437,,
(租11402)楊湖路三段846巷與富豐三路二段口-2.往富民街(車),NOR-1003,上湖派出所,2025-08-04,08:54:26,2051005011,LOC_2283,121.078161,24.917773,,
(租11402)楊湖路三段846巷與富豐三路二段口-3.往富豐二路(車),NOR-1003,上湖派出所,2025-08-04,08:54:32,2051005021,LOC_2284,121.077966,24.917918,,
(租11402)富豐二、富豐二259巷、260巷口-2.往楊湖路三段846巷(車),NOR-1003,富岡派出所,2025-08-04,08:56:55,2051007011,LOC_2496,121.081408,24.925559,,
(租11402)富豐二、富豐二259巷、260巷口-3.往富元街465巷(車),NOR-1003,富岡派出所,2025-08-04,08:57:11,2051007021,LOC_2497,121.081981,24.925908,,
(租11401)中正路、成功路口-4.往中華街66巷(車),NOR-1003,富岡派出所,2025-08-04,09:00:39,2050202031,LOC_2474,121.082885,24.934619,,
(租11401)中正路、成功路口-3.往中華街(車),NOR-1003,富岡派出所,2025-08-04,09:00:51,2050202021,LOC_2473,121.083021,24.935181,,
(租11401)中正路、成功路口-5.往成功路20巷(車),NOR-1003,富岡派出所,2025-08-04,09:01:05,2050202041,LOC_2475,121.083626,24.934767,,
(租11401)民生街(桃109)、民生街505巷-3.往民生街375巷(車),NOR-1003,富岡派出所,2025-08-04,09:04:16,2050208021,LOC_2478,121.087438,24.945331,,
(租11401)民生街(桃109)、民生街505巷-2.往民生街505巷(車),NOR-1003,富岡派出所,2025-08-04,09:04:37,2050208011,LOC_2477,121.087732,24.946018,,
(租11401)民生街(桃109)、民生街505巷-4.往民有路二段(車),NOR-1003,富岡派出所,2025-08-04,09:04:47,2050208031,LOC_2479,121.087243,24.946168,,
(租11402)龍安街、文中路(二)-4.往龍安街往國強一街(車),NOR-1005,龍安派出所,2025-08-04,09:13:00,2010770131,LOC_0490,121.278111,24.993426,,
(租11402)龍安街、文中路-4.往龍安街往國強一街(車),NOR-1005,龍安派出所,2025-08-04,09:13:09,2010770031,LOC_0487,121.278374,24.993772,,
(租11402)龍安街、文中路-5.往國強十三街往國豐三街(車),NOR-1005,龍安派出所,2025-08-04,09:13:10,2010770041,LOC_0487,121.27844,24.993782,,
(租11402)龍安街、文中路-2.往文中路外車道往國豐十街(車),NOR-1005,龍安派出所,2025-08-04,09:13:16,2010770011,LOC_0486,121.27822,24.993978,,
(租11402)龍安街、文中路-3.往文中路內車道往國豐十街(車),NOR-1005,龍安派出所,2025-08-04,09:13:17,2010770021,LOC_0486,121.278226,24.994016,,
(租11402)龍安街、文中路(二)-2.往文中路外車道往國豐十街(車),NOR-1005,龍安派出所,2025-08-04,09:13:35,2010770111,LOC_0489,121.277282,24.99361,,
(租11402)龍安街、文中路(二)-3.往文中路內車道往國豐十街(車),NOR-1005,龍安派出所,2025-08-04,09:13:35,2010770121,LOC_0489,121.277251,24.993603,,
(租11402)龍安街、文中路(二)-5.往國強十三街往國豐三街(車),NOR-1005,龍安派出所,2025-08-04,09:13:54,2010770141,LOC_0491,121.277875,24.993026,,
(租11401)國強十一街與國豐八街口-4.往國強十一街往國豐七街(車),NOR-1005,龍安派出所,2025-08-04,09:14:47,2010075031,LOC_0456,121.27588,24.991267,,
(租11401)國強十一街與國豐八街口-5.往國豐八街(車),NOR-1005,龍安派出所,2025-08-04,09:14:56,2010075041,LOC_0457,121.275532,24.991542000000003,,
(租11401)國強十一街與國豐八街口-3.往國強十一街往國豐十街(車),NOR-1005,龍安派出所,2025-08-04,09:15:05,2010075021,LOC_0455,121.275364,24.991079,,
(租11401)國強七街與國豐六街口-4.往國豐六街往國強八街(車),NOR-1005,龍安派出所,2025-08-04,09:16:26,2010074031,LOC_0450,121.2783,24.988496,,
(租11401)國強七街與國豐六街口-6.往國強七街往龍安街(車),NOR-1005,龍安派出所,2025-08-04,09:16:31,2010074051,LOC_0447,121.278483,24.988292,,
(租11401)國強七街與國豐六街口-7.往國豐六街往龍鳳三街(車),NOR-1005,龍安派出所,2025-08-04,09:16:36,2010074061,LOC_0452,121.278496,24.988032,,
(租11401)國強七街與國豐六街口-5.往國強七街往國強七街32巷(車),NOR-1005,龍安派出所,2025-08-04,09:16:45,2010074041,LOC_0451,121.278002,24.988121,,
(租11401)中山路943巷1弄-4.往中山路943巷往中山路(車),NOR-1005,龍安派出所,2025-08-04,09:18:24,2010046031,LOC_0437,121.282994,24.987052,,
(租11401)中華路與中華北街-3.往中華北街(車),NOR-1005,高明派出所,2025-08-04,09:20:39,2080592021,LOC_3588,121.276573,24.982187,,
(租11401)中華路與中華北街-4.往中華北街(車),NOR-1005,高明派出所,2025-08-04,09:20:44,2080592031,LOC_3589,121.276352,24.982356,,
(租11401)中興路756巷口-2.往福林街(車),NOR-1002,大竹派出所,2025-08-04,09:21:00,2100706011,LOC_3971,121.249175,25.008645,,
(租11401)中興路756巷口-3.往福林街(車),NOR-1002,大竹派出所,2025-08-04,09:21:01,2100706021,LOC_3971,121.249105,25.008626,,
(租11401)中興路756巷口-6.往大竹內車道(車),NOR-1002,大竹派出所,2025-08-04,09:21:06,2100706051,LOC_3974,121.249394,25.008432,,
(租11401)中興路756巷口-7.往大竹外車道(車),NOR-1002,大竹派出所,2025-08-04,09:21:06,2100706061,LOC_3974,121.249394,25.008423,,
(租11401)中興路756巷口-5.往中興路711巷(車),NOR-1002,大竹派出所,2025-08-04,09:21:11,2100706041,LOC_3973,121.249206,25.008295,,
(租11401)中興路756巷口-4.往中興路711巷(車),NOR-1002,大竹派出所,2025-08-04,09:21:18,2100706031,LOC_3972,121.249145,25.007982,,
(租11402)中興路與中興路667巷口-6.中興路往合圳北路自行車道(車),NOR-1002,大竹派出所,2025-08-04,09:21:53,2100963051,LOC_4025,121.251108,25.008596,,
(租11402)中興路與中興路667巷口-4.往合圳北路(車),NOR-1002,大竹派出所,2025-08-04,09:21:53,2100963031,LOC_4025,121.25114,25.008585,,
(租11401)中華路與高城六街48巷口-4.往高城六街48巷(車),NOR-1005,高明派出所,2025-08-04,09:21:56,2080593031,LOC_3592,121.274303,24.979626,,
(租11402)中興路與中興路667巷口-5.往中興路711巷(車),NOR-1002,大竹派出所,2025-08-04,09:22:03,2100963041,LOC_4026,121.251703,25.0084,,
(租11402)中興路與中興路667巷口-3.往龍安街二段(車),NOR-1002,大竹派出所,2025-08-04,09:22:08,2100963021,LOC_4024,121.251868,25.008618,,
(租11402)中興路與中興路667巷口-7.中興路往龍安街二段自行車道(車),NOR-1002,大竹派出所,2025-08-04,09:22:09,2100963061,LOC_4024,121.251941,25.00862,,
(租11401)中華路與高城六街48巷口-3.往龍祥街(車),NOR-1005,高明派出所,2025-08-04,09:22:33,2080593021,LOC_3591,121.271954,24.979301,,
(租11401)中山路與中山路1496巷-6.往中山路內車道(車),NOR-1005,龍安派出所,2025-08-04,09:23:42,2010006051,LOC_0438,121.268199,24.976535,,
(租11401)中山路與中山路1496巷-5.往中山路外車道(車),NOR-1005,龍安派出所,2025-08-04,09:23:43,2010006041,LOC_0438,121.268177,24.976557,,
(租11402)龍林街與中興路585巷-2.往中興路(車),NOR-1002,大竹派出所,2025-08-04,09:24:00,2100755011,LOC_4062,121.255075,25.005162,,
(租11402)龍林街與中興路585巷-4.往龍安街二段(車),NOR-1002,大竹派出所,2025-08-04,09:24:04,2100755031,LOC_4064,121.255349,25.00511,,
(租11402)龍林街與中興路585巷-5.往涵洞(車),NOR-1002,大竹派出所,2025-08-04,09:24:09,2100755041,LOC_4061,121.255147,25.004864,,
(租11402)龍林街與中興路585巷-3.往中壢服務區(車),NOR-1002,大竹派出所,2025-08-04,09:24:12,2100755021,LOC_4063,121.255026,25.004862,,
(租11401)龍林街與福興三街-4.往龍安街二段(車),NOR-1002,大竹派出所,2025-08-04,09:24:31,2100715031,LOC_3981,121.255452,25.004319,,
(租11401)龍林街與福興三街-3.往中壢服務區(車),NOR-1002,大竹派出所,2025-08-04,09:24:34,2100715021,LOC_3981,121.255304,25.004224,,
(租11401)龍林街與福興三街-2.往福興二街(車),NOR-1002,大竹派出所,2025-08-04,09:24:43,2100715011,LOC_3982,121.255539,25.003799,,
(租11401)雙龍街29巷與中山路1530巷口-4.往雙龍街29巷往中山街(車),NOR-1005,龍安派出所,2025-08-04,09:24:48,2010039031,LOC_0466,121.265831,24.97812,,
(租11401)雙龍街29巷與中山路1530巷口-3.往雙龍街29巷往雙龍街(車),NOR-1005,龍安派出所,2025-08-04,09:25:12,2010039021,LOC_0467,121.266195,24.9796,,
(租11402)龍門街24號前十字路口-6.往龍門街往中壢成功路(車),NOR-1005,龍安派出所,2025-08-04,09:26:30,2010092051,LOC_0499,121.263497,24.977497,,
(租11401)龍山街186巷與中山路1562巷口-6.往中山路1562巷往龍門街(車),NOR-1005,龍安派出所,2025-08-04,09:27:10,2010038051,LOC_0463,121.26263,24.979683,,
(租11401)龍山街186巷與中山路1562巷口-5.往龍門街(車),NOR-1005,龍安派出所,2025-08-04,09:27:29,2010038041,LOC_0462,121.262647,24.980464,,
(租11401)龍山街186巷與中山路1562巷口-4.往中山路1562巷往內定一街(車),NOR-1005,龍安派出所,2025-08-04,09:27:47,2010038031,LOC_0461,121.262456,24.981445,,
(租11402)龍山街與內定一街口-5.往龍門街(車),NOR-1005,龍安派出所,2025-08-04,09:28:41,2010091041,LOC_0484,121.260617,24.98389,,
(租11402)龍山街與內定一街口-3.往龍門街(車),NOR-1005,龍安派出所,2025-08-04,09:28:50,2010091021,LOC_0482,121.260533,24.984459,,
(租11402)大興一街與興仁路口-4.往中興六街(車),NOR-1002,大竹派出所,2025-08-04,09:29:09,2100723031,LOC_4021,121.262003,25.01411,,
(租11402)大興一街與興仁路口-3.往大興二街(車),NOR-1002,大竹派出所,2025-08-04,09:29:15,2100723021,LOC_4020,121.262019,25.014476,,
(租11402)大興一街與興仁路口-2.往大興八街(車),NOR-1002,大竹派出所,2025-08-04,09:29:20,2100723011,LOC_4019,121.262376,25.014441,,
(租11401)上興路、興中街-4.往大興八街(車),NOR-1002,大竹派出所,2025-08-04,09:31:35,2100803031,LOC_3936,121.259453,25.018569,,
(租11401)上興路、興中街-3.往興仁路(車),NOR-1002,大竹派出所,2025-08-04,09:31:43,2100803021,LOC_3935,121.259612,25.018846,,
(租11401)上興路、興中街-2.往大福路(車),NOR-1002,大竹派出所,2025-08-04,09:31:50,2100803011,LOC_3934,121.25949,25.019076,,
(租11401)大新一街與上興路口-2.豪登一街往大福路(車),NOR-1002,大竹派出所,2025-08-04,09:32:20,2100803111,LOC_3942,121.258302,25.019061,,
(租11401)大新一街與上興路口-3.豪登一街往大興八街(車),NOR-1002,大竹派出所,2025-08-04,09:32:26,2100803121,LOC_3943,121.25831,25.018802,,
(租11401)大新一街與上興路口-4.大新一街往大興八街(車),NOR-1002,大竹派出所,2025-08-04,09:32:39,2100803131,LOC_3944,121.257604,25.018616,,
(租11401)大新一街與上興路口-5.上興路往大興路(車),NOR-1002,大竹派出所,2025-08-04,09:32:47,2100803141,LOC_3945,121.257391,25.018888,,
(租11401)大新一街與上興路口-6.往大福路(車),NOR-1002,大竹派出所,2025-08-04,09:32:51,2100803151,LOC_3946,121.257607,25.018998,,
(租11401)大興路、上興路-4.往大新一街(車),NOR-1002,大竹派出所,2025-08-04,09:33:07,2100802031,LOC_3968,121.256593,25.018621,,
(租11402)龍山街與內定一街口-3.往龍門街(車),NOR-1005,龍安派出所,2025-08-04,17:03:00,2010091021,LOC_0482,121.260533,24.984459,,
(租11402)龍山街與內定一街口-5.往龍門街(車),NOR-1005,龍安派出所,2025-08-04,17:03:09,2010091041,LOC_0484,121.260617,24.98389,,
(租11401)龍山街186巷與中山路1562巷口-4.往中山路1562巷往內定一街(車),NOR-1005,龍安派出所,2025-08-04,17:03:55,2010038031,LOC_0461,121.262456,24.981445,,
(租11402)國際路一段308號前Y字型路口-4.往八德(車),NOR-1001,中路派出所,2025-08-04,17:04:00,2010080031,LOC_0413,121.291523,24.968309,,
(租11402)國際路一段262巷與桃德路113巷-5.往桃德路(車),NOR-1001,中路派出所,2025-08-04,17:04:18,2010079041,LOC_0409,121.29252,24.96796,,
(租11401)龍山街186巷與中山路1562巷口-5.往龍門街(車),NOR-1005,龍安派出所,2025-08-04,17:04:20,2010038041,LOC_0462,121.262647,24.980464,,
(租11402)國際路一段262巷與桃德路113巷-4.往八德(車),NOR-1001,中路派出所,2025-08-04,17:04:22,2010079031,LOC_0408,121.292344,24.967785,,
(租11401)龍山街186巷與中山路1562巷口-6.往中山路1562巷往龍門街(車),NOR-1005,龍安派出所,2025-08-04,17:04:33,2010038051,LOC_0463,121.26263,24.979683,,
(租11401)國際路一段141巷與桃德路39巷口-5.往國際路一段141巷(車),NOR-1001,中路派出所,2025-08-04,17:05:08,2010078041,LOC_0350,121.291792,24.96517,,
(租11401)國際路一段141巷與桃德路39巷口-3.往國際路一段往桃園(車),NOR-1001,中路派出所,2025-08-04,17:05:22,2010078021,LOC_0348,121.292196,24.96585,,
(租11402)龍門街24號前十字路口-6.往龍門街往中壢成功路(車),NOR-1005,龍安派出所,2025-08-04,17:05:23,2010092051,LOC_0499,121.263497,24.977497,,
(租11401)國際路一段141巷與桃德路39巷口-4.往桃德路39巷(車),NOR-1001,中路派出所,2025-08-04,17:05:30,2010078031,LOC_0349,121.292683,24.965737,,
(租11401)國際路一段141巷與桃德路39巷口-6.往國際路一段120巷(車),NOR-1001,中路派出所,2025-08-04,17:05:47,2010078051,LOC_0351,121.292855,24.964712,,
(租11401)國際一路88號前路口 (延伸至國際一、二路口)-8.往國際路一段往國豐街(車),NOR-1001,中路派出所,2025-08-04,17:06:17,2010076071,LOC_0345,121.292439,24.963559,,
(租11401)雙龍街29巷與中山路1530巷口-3.往雙龍街29巷往雙龍街(車),NOR-1005,龍安派出所,2025-08-04,17:06:21,2010039021,LOC_0467,121.266195,24.9796,,
(租11401)國際一路88號前路口 (延伸至國際一、二路口)-5.往中路北街67巷(車),NOR-1001,中路派出所,2025-08-04,17:06:35,2010076041,LOC_0342,121.293488,24.963336,,
(租11402)中路街與中路南街口-4.往國際一路往國際路一段(車),NOR-1001,廣興派出所,2025-08-04,17:06:51,2080620031,LOC_3370,121.293343,24.962521,,
(租11401)雙龍街29巷與中山路1530巷口-4.往雙龍街29巷往中山街(車),NOR-1005,龍安派出所,2025-08-04,17:06:52,2010039031,LOC_0466,121.265831,24.97812,,
(租11401)國際一路88號前路口 (延伸至國際一、二路口)-6.往國際二路往中路北街(車),NOR-1001,中路派出所,2025-08-04,17:07:01,2010076051,LOC_0343,121.293647,24.962301,,
(租11401)國際一路88號前路口 (延伸至國際一、二路口)-7.往國際一路往中路街(車),NOR-1001,中路派出所,2025-08-04,17:07:15,2010076061,LOC_0344,121.293306,24.961889000000003,,
(租11402)中路街與中路南街口-6.往中路北街往國際二路(車),NOR-1001,廣興派出所,2025-08-04,17:07:32,2080620051,LOC_3372,121.294295,24.961488,,
(租11402)中路街與中路南街口-5.往中路南街往國際路(車),NOR-1001,廣興派出所,2025-08-04,17:07:38,2080620041,LOC_3371,121.294327,24.961177,,
(租11401)中山路與中山路1496巷-5.往中山路外車道(車),NOR-1005,龍安派出所,2025-08-04,17:07:43,2010006041,LOC_0438,121.268177,24.976557,,
(租11401)中山路與中山路1496巷-6.往中山路內車道(車),NOR-1005,龍安派出所,2025-08-04,17:07:44,2010006051,LOC_0438,121.268199,24.976535,,
(租11402)廣福路與廣隆街口-5.往廣隆街往建國路(車),NOR-1001,廣興派出所,2025-08-04,17:08:31,2080652041,LOC_3399,121.292153,24.959094,,
(租11402)廣福路與廣隆街口-6.往廣隆街往廣福路(車),NOR-1001,廣興派出所,2025-08-04,17:08:35,2080652051,LOC_3402,121.292179,24.959346,,
(租11401)中華路與高城六街48巷口-3.往龍祥街(車),NOR-1005,高明派出所,2025-08-04,17:09:08,2080593021,LOC_3591,121.271954,24.979301,,
(租11401)廣福路與廣福路451巷口 (含483、499巷口)-4.往大湳(車),NOR-1001,廣興派出所,2025-08-04,17:09:48,2080616031,LOC_3356,121.288793,24.959853,,
(租11401)中華路與高城六街48巷口-4.往高城六街48巷(車),NOR-1005,高明派出所,2025-08-04,17:09:52,2080593031,LOC_3592,121.274303,24.979626,,
(租11401)廣福路與廣福路451巷口 (含483、499巷口)-5.往廣興路(車),NOR-1001,廣興派出所,2025-08-04,17:09:56,2080616041,LOC_3353,121.288341,24.959896,,
(租11401)廣福路與廣福路451巷口 (含483、499巷口)-3.往力霸街(車),NOR-1001,廣興派出所,2025-08-04,17:10:06,2080616021,LOC_3355,121.288328,24.959348,,
(租11401)中華路與中華北街-4.往中華北街(車),NOR-1005,高明派出所,2025-08-04,17:10:48,2080592031,LOC_3589,121.276352,24.982356,,
(租11401)中華路與中華北街-3.往中華北街(車),NOR-1005,高明派出所,2025-08-04,17:10:53,2080592021,LOC_3588,121.276573,24.982187,,
(租11402)廣興路與廣興路1156巷口-5.往廣興路1156巷往廣福路(車),NOR-1001,廣興派出所,2025-08-04,17:11:41,2080654041,LOC_3410,121.284483,24.955269,,
(租11402)廣興路與廣興路1156巷口-3.往廣興路往新興路(車),NOR-1001,廣興派出所,2025-08-04,17:12:13,2080654021,LOC_3408,121.283674,24.954153,,
(租11402)廣興路與廣興路1156巷口-4.往廣興路往廣福路(車),NOR-1001,廣興派出所,2025-08-04,17:12:24,2080654031,LOC_3409,121.28346,24.9546,,
(租11402)廣興路1360巷80弄口-3.往廣興路1360巷往永豐南路(車),NOR-1001,廣興派出所,2025-08-04,17:13:16,2080653021,LOC_3403,121.280675,24.956095,,
(租11402)廣興路1360巷80弄口-4.往廣興路1360巷往溪墘街(車),NOR-1001,廣興派出所,2025-08-04,17:13:42,2080653031,LOC_3405,121.279342,24.954982,,
(租11401)中山路943巷1弄-4.往中山路943巷往中山路(車),NOR-1005,龍安派出所,2025-08-04,17:14:06,2010046031,LOC_0437,121.282994,24.987052,,
(租11402)廣福路1357巷與永豐南路31巷(延伸永豐南路31巷280弄口)-5.往廣福路879巷192弄往廣福路879巷(車),NOR-1001,高明派出所,2025-08-04,17:14:18,2080651041,LOC_3641,121.276976,24.955713,,
(租11402)廣福路1357巷與永豐南路31巷(延伸永豐南路31巷280弄口)-4.往永豐南路31巷往永豐路(車),NOR-1001,高明派出所,2025-08-04,17:14:20,2080651031,LOC_3640,121.277093,24.955645,,
(租11402)廣福路1357巷與永豐南路31巷(延伸永豐南路31巷280弄口)-3.往永豐南路31巷往永豐南路31巷280弄(車),NOR-1001,高明派出所,2025-08-04,17:14:57,2080651021,LOC_3639,121.27708,24.953902,,
(租11401)國強七街與國豐六街口-5.往國強七街往國強七街32巷(車),NOR-1005,龍安派出所,2025-08-04,17:15:38,2010074041,LOC_0451,121.278002,24.988121,,
(租11401)國強七街與國豐六街口-7.往國豐六街往龍鳳三街(車),NOR-1005,龍安派出所,2025-08-04,17:15:46,2010074061,LOC_0452,121.278496,24.988032,,
(租11401)國強七街與國豐六街口-6.往國強七街往龍安街(車),NOR-1005,龍安派出所,2025-08-04,17:15:51,2010074051,LOC_0447,121.278483,24.988292,,
(租11401)國強七街與國豐六街口-4.往國豐六街往國強八街(車),NOR-1005,龍安派出所,2025-08-04,17:15:56,2010074031,LOC_0450,121.2783,24.988496,,
(租11402)廣福路1357巷206弄口-3.往廣福路1357巷206弄往永豐南路31巷(車),NOR-1001,高明派出所,2025-08-04,17:16:27,2080650021,LOC_3635,121.271808,24.953303,,
(租11402)廣福路1357巷206弄口-2.往廣福路1357巷往廣福路(車),NOR-1001,高明派出所,2025-08-04,17:16:44,2080650011,LOC_3634,121.271339,24.95408,,
(租11402)廣福路1357巷206弄口-4.往廣福路1357巷280弄往永豐南路31巷(車),NOR-1001,高明派出所,2025-08-04,17:16:56,2080650031,LOC_3636,121.271883,24.953865,,
(租11401)國強十一街與國豐八街口-3.往國強十一街往國豐十街(車),NOR-1005,龍安派出所,2025-08-04,17:17:07,2010075021,LOC_0455,121.275364,24.991079,,
(租11401)國強十一街與國豐八街口-5.往國豐八街(車),NOR-1005,龍安派出所,2025-08-04,17:17:15,2010075041,LOC_0457,121.275532,24.991542000000003,,
(租11401)國強十一街與國豐八街口-4.往國強十一街往國豐七街(車),NOR-1005,龍安派出所,2025-08-04,17:17:21,2010075031,LOC_0456,121.27588,24.991267,,
(租11402)龍安街、文中路(二)-5.往國強十三街往國豐三街(車),NOR-1005,龍安派出所,2025-08-04,17:18:03,2010770141,LOC_0491,121.277875,24.993026,,
(租11402)龍安街、文中路(二)-3.往文中路內車道往國豐十街(車),NOR-1005,龍安派出所,2025-08-04,17:18:18,2010770121,LOC_0489,121.277251,24.993603,,
(租11402)龍安街、文中路(二)-2.往文中路外車道往國豐十街(車),NOR-1005,龍安派出所,2025-08-04,17:18:19,2010770111,LOC_0489,121.277282,24.99361,,
(租11402)龍安街、文中路-3.往文中路內車道往國豐十街(車),NOR-1005,龍安派出所,2025-08-04,17:18:36,2010770021,LOC_0486,121.278226,24.994016,,
(租11402)龍安街、文中路-2.往文中路外車道往國豐十街(車),NOR-1005,龍安派出所,2025-08-04,17:18:36,2010770011,LOC_0486,121.27822,24.993978,,
(租11402)龍安街、文中路-5.往國強十三街往國豐三街(車),NOR-1005,龍安派出所,2025-08-04,17:18:41,2010770041,LOC_0487,121.27844,24.993782,,
(租11402)龍安街、文中路-4.往龍安街往國強一街(車),NOR-1005,龍安派出所,2025-08-04,17:18:42,2010770031,LOC_0487,121.278374,24.993772,,
(租11402)龍安街、文中路(二)-4.往龍安街往國強一街(車),NOR-1005,龍安派出所,2025-08-04,17:18:50,2010770131,LOC_0490,121.278111,24.993426,,
(租11401)大興十一街、大新一街-2.往大福路(車),NOR-1004,大竹派出所,2025-08-04,18:22:00,2100804011,LOC_3952,121.257081,25.0224,,
(租11402)大福路與大新一街口(一)-5.往大新三街(車),NOR-1004,大竹派出所,2025-08-04,18:22:29,2100721041,LOC_4017,121.257295,25.020669,,
(租11402)大福路與大新一街口(一)-3.往大興十一街(車),NOR-1004,大竹派出所,2025-08-04,18:22:35,2100721021,LOC_4015,121.257569,25.020881,,
(租11402)大福路與大新一街口(一)-4.往豪登一街(車),NOR-1004,大竹派出所,2025-08-04,18:22:43,2100721031,LOC_4016,121.25779,25.020688,,
(租11402)大福路與大新一街口(一)-2.往福興街(車),NOR-1004,大竹派出所,2025-08-04,18:22:48,2100721011,LOC_4014,121.257627,25.020427,,
(租11401)民生街(桃109)、民生街505巷-4.往民有路二段(車),NOR-1003,富岡派出所,2025-08-04,18:24:00,2050208031,LOC_2479,121.087243,24.946168,,
(租11401)民生街(桃109)、民生街505巷-2.往民生街505巷(車),NOR-1003,富岡派出所,2025-08-04,18:24:11,2050208011,LOC_2477,121.087732,24.946018,,
(租11401)民生街(桃109)、民生街505巷-3.往民生街375巷(車),NOR-1003,富岡派出所,2025-08-04,18:24:26,2050208021,LOC_2478,121.087438,24.945331,,
(租11402)大興一街與興仁路口-4.往中興六街(車),NOR-1004,大竹派出所,2025-08-04,18:25:26,2100723031,LOC_4021,121.262003,25.01411,,
(租11402)大興一街與興仁路口-3.往大興二街(車),NOR-1004,大竹派出所,2025-08-04,18:25:33,2100723021,LOC_4020,121.262019,25.014476,,
(租11402)大興一街與興仁路口-2.往大興八街(車),NOR-1004,大竹派出所,2025-08-04,18:25:39,2100723011,LOC_4019,121.262376,25.014441,,
(租11401)大竹路288巷28號-2.往上竹路(車),NOR-1004,大竹派出所,2025-08-04,18:27:36,2100906011,LOC_3938,121.269437,25.018452,,
(租11402)大竹路288巷、314巷-6.往上竹路(車),NOR-1004,大竹派出所,2025-08-04,18:27:55,2100717051,LOC_3992,121.268234,25.018362,,
(租11402)大竹路、上竹一街、上竹二街口-3.往竹中街(車),NOR-1004,大竹派出所,2025-08-04,18:28:16,2100716021,LOC_3985,121.266855,25.0189,,
(租11402)大竹路、上竹一街、上竹二街口-4.往竹中街(車),NOR-1004,大竹派出所,2025-08-04,18:28:37,2100716031,LOC_3986,121.266272,25.019519,,
(租11401)中正路、成功路口-5.往成功路20巷(車),NOR-1003,富岡派出所,2025-08-04,18:29:09,2050202041,LOC_2475,121.083626,24.934767,,
(租11401)中正路、成功路口-3.往中華街(車),NOR-1003,富岡派出所,2025-08-04,18:29:22,2050202021,LOC_2473,121.083021,24.935181,,
(租11401)中正路、成功路口-4.往中華街66巷(車),NOR-1003,富岡派出所,2025-08-04,18:29:32,2050202031,LOC_2474,121.082885,24.934619,,
(租11402)興仁路5巷與大竹一街-3.往上竹五街(車),NOR-1004,大竹派出所,2025-08-04,18:30:11,2100752021,LOC_4053,121.262595,25.020453,,
(租11402)興仁路5巷與大竹一街-2.往大竹路449巷(車),NOR-1004,大竹派出所,2025-08-04,18:30:25,2100752011,LOC_4052,121.261944,25.02081,,
(租11402)興仁路5巷與大竹一街-4.往福興街(車),NOR-1004,大竹派出所,2025-08-04,18:30:34,2100752031,LOC_4054,121.261919,25.020254,,
(租11402)興仁路5巷與大竹一街-5.往興仁路(車),NOR-1004,大竹派出所,2025-08-04,18:30:39,2100752041,LOC_4055,121.261762,25.020473,,
(租11401)大福路、興仁路-4.往大竹路(車),NOR-1004,大竹派出所,2025-08-04,18:31:12,2100806031,LOC_3950,121.260483,25.021158,,
(租11401)大福路、興仁路-2.往上興路(車),NOR-1004,大竹派出所,2025-08-04,18:31:22,2100806011,LOC_3948,121.260614,25.02079,,
(租11401)大福路、興仁路-3.往大興路(車),NOR-1004,大竹派出所,2025-08-04,18:31:32,2100806021,LOC_3949,121.260122,25.020842,,
(租11401)上興路、興中街-4.往大興八街(車),NOR-1004,大竹派出所,2025-08-04,18:32:11,2100803031,LOC_3936,121.259453,25.018569,,
(租11401)上興路、興中街-3.往興仁路(車),NOR-1004,大竹派出所,2025-08-04,18:32:17,2100803021,LOC_3935,121.259612,25.018846,,
(租11401)上興路、興中街-2.往大福路(車),NOR-1004,大竹派出所,2025-08-04,18:32:21,2100803011,LOC_3934,121.25949,25.019076,,
(租11401)大新一街與上興路口-2.豪登一街往大福路(車),NOR-1004,大竹派出所,2025-08-04,18:32:40,2100803111,LOC_3942,121.258302,25.019061,,
(租11401)大新一街與上興路口-3.豪登一街往大興八街(車),NOR-1004,大竹派出所,2025-08-04,18:32:45,2100803121,LOC_3943,121.25831,25.018802,,
(租11401)大新一街與上興路口-4.大新一街往大興八街(車),NOR-1004,大竹派出所,2025-08-04,18:33:00,2100803131,LOC_3944,121.257604,25.018616,,
(租11401)大新一街與上興路口-6.往大福路(車),NOR-1004,大竹派出所,2025-08-04,18:33:06,2100803151,LOC_3946,121.257607,25.018998,,
(租11401)大新一街與上興路口-5.上興路往大興路(車),NOR-1004,大竹派出所,2025-08-04,18:33:10,2100803141,LOC_3945,121.257391,25.018888,,
(租11401)大興路、上興路-4.往大新一街(車),NOR-1004,大竹派出所,2025-08-04,18:33:28,2100802031,LOC_3968,121.256593,25.018621,,
(租11402)富豐二、富豐二259巷、260巷口-3.往富元街465巷(車),NOR-1003,富岡派出所,2025-08-04,18:33:29,2051007021,LOC_2497,121.081981,24.925908,,
(租11401)大興路、上興路-5.往中興路(車),NOR-1004,大竹派出所,2025-08-04,18:33:37,2100802041,LOC_3969,121.256282,25.018269,,
(租11402)富豐二、富豐二259巷、260巷口-2.往楊湖路三段846巷(車),NOR-1003,富岡派出所,2025-08-04,18:33:39,2051007011,LOC_2496,121.081408,24.925559,,
(租11401)大興路、上興路-3.往大新路(車),NOR-1004,大竹派出所,2025-08-04,18:33:42,2100802021,LOC_3967,121.256105,25.018507,,
(租11402)楊湖路三段846巷與富豐三路二段口-3.往富豐二路(車),NOR-1003,上湖派出所,2025-08-04,18:37:09,2051005021,LOC_2284,121.077966,24.917918,,
(租11402)楊湖路三段846巷與富豐三路二段口-2.往富民街(車),NOR-1003,上湖派出所,2025-08-04,18:37:13,2051005011,LOC_2283,121.078161,24.917773,,
(租11402)高鐵南路十段、上湖二路口(一)-5.往楊湖路三段875巷(車),NOR-1003,上湖派出所,2025-08-04,18:41:23,2050284041,LOC_2281,121.08517,24.907437,,
(租11402)高鐵南路十段、上湖二路口(一)-4.往上湖二路90巷(車),NOR-1003,上湖派出所,2025-08-04,18:41:40,2050284031,LOC_2280,121.085877,24.907574,,
(租11401)高鐵南路十段、上湖二路口(二)-4.往上湖三路421巷(車),NOR-1003,上湖派出所,2025-08-04,18:41:57,2050227031,LOC_2261,121.08664,24.907246,,
(租11401)高鐵南路十段、上湖二路口(二)-2.高鐵南路十段往楊湖路三段內車道(車),NOR-1003,上湖派出所,2025-08-04,18:42:03,2050227011,LOC_2260,121.086287,24.907363,,
(租11401)高鐵南路十段、上湖二路口(二)-3.高鐵南路十段往楊湖路三段外車道(車),NOR-1003,上湖派出所,2025-08-04,18:42:03,2050227021,LOC_2260,121.08628,24.907347,,
(租11402)高鐵南路十段、上湖二路口(一)-3.高鐵南路十段往新竹外車道(車),NOR-1003,上湖派出所,2025-08-04,18:42:12,2050284021,LOC_2279,121.085887,24.90709,,
(租11402)高鐵南路十段、上湖二路口(一)-2.高鐵南路十段往新竹內車道(車),NOR-1003,上湖派出所,2025-08-04,18:42:12,2050284011,LOC_2279,121.085912,24.907078,,
(租11401)高鐵南路十段、上湖二路口(二)-5.往上湖二路300巷(車),NOR-1003,上湖派出所,2025-08-04,18:42:26,2050227041,LOC_2262,121.086218,24.906585,,
(租11402)泰圳路、泰圳路1450巷口-2.往新竹(車),NOR-1003,上湖派出所,2025-08-04,18:47:20,2050279011,LOC_2275,121.090011,24.894771,,
(租11402)泰圳路、泰圳路1450巷口-3.往新竹(車),NOR-1003,上湖派出所,2025-08-04,18:47:26,2050279021,LOC_2276,121.090044,24.895009,,
(租11402)泰圳路、上湖二路-2.往八德路三段135巷(車),NOR-1003,上湖派出所,2025-08-04,18:47:56,2050915011,LOC_2271,121.091617,24.895593,,
(租11402)泰圳路、上湖二路-4.往楊湖路二段719巷(車),NOR-1003,上湖派出所,2025-08-04,18:48:02,2050915031,LOC_2273,121.091519,24.895929,,
(租11402)泰圳路、上湖二路-3.往泰圳路820巷(車),NOR-1003,上湖派出所,2025-08-04,18:48:09,2050915021,LOC_2272,121.091929,24.895914,,
(租11402)泰圳路、上湖一路口-4.往泰圳路820巷(車),NOR-1003,上湖派出所,2025-08-04,18:53:21,2050278031,LOC_2269,121.104487,24.902158,,
(租11402)泰圳路、上湖一路口-3.往三湖路(車),NOR-1003,上湖派出所,2025-08-04,18:53:46,2050278021,LOC_2268,121.104178,24.903201,,
(租11402)泰圳路、上湖一路口-2.往泰圳路684巷(車),NOR-1003,上湖派出所,2025-08-04,18:54:00,2050278011,LOC_2267,121.104763,24.903042,,
(租11401)泰圳路、泰圳路200巷口-2.往泰圳路177巷(車),NOR-1003,上湖派出所,2025-08-04,18:57:25,2050225011,LOC_2255,121.11292,24.906736,,
(租11401)泰圳路、泰圳路200巷口-3.往泰圳路190巷(車),NOR-1003,上湖派出所,2025-08-04,18:57:31,2050225021,LOC_2256,121.112687,24.906846,,
(租11401)泰圳路、泰圳路200巷口-4.往泰圳路200巷(車),NOR-1003,上湖派出所,2025-08-04,18:57:41,2050225031,LOC_2257,121.112383,24.906291,,
(租11401)泰圳路、泰圳路200巷口-5.往泰圳路222巷(車),NOR-1003,上湖派出所,2025-08-04,18:57:45,2050225041,LOC_2258,121.112439,24.906033,,
(租11401)大興路、上興路-4.往大新一街(車),NOR-1002,大竹派出所,2025-08-04,19:35:00,2100802031,LOC_3968,121.256593,25.018621,,
(租11401)大新一街與上興路口-6.往大福路(車),NOR-1002,大竹派出所,2025-08-04,19:35:15,2100803151,LOC_3946,121.257607,25.018998,,
(租11401)大新一街與上興路口-5.上興路往大興路(車),NOR-1002,大竹派出所,2025-08-04,19:35:19,2100803141,LOC_3945,121.257391,25.018888,,
(租11401)大新一街與上興路口-4.大新一街往大興八街(車),NOR-1002,大竹派出所,2025-08-04,19:35:28,2100803131,LOC_3944,121.257604,25.018616,,
(租11401)大新一街與上興路口-3.豪登一街往大興八街(車),NOR-1002,大竹派出所,2025-08-04,19:35:44,2100803121,LOC_3943,121.25831,25.018802,,
(租11401)大新一街與上興路口-2.豪登一街往大福路(車),NOR-1002,大竹派出所,2025-08-04,19:35:51,2100803111,LOC_3942,121.258302,25.019061,,
(租11401)上興路、興中街-2.往大福路(車),NOR-1002,大竹派出所,2025-08-04,19:36:10,2100803011,LOC_3934,121.25949,25.019076,,
(租11401)上興路、興中街-3.往興仁路(車),NOR-1002,大竹派出所,2025-08-04,19:36:16,2100803021,LOC_3935,121.259612,25.018846,,
(租11401)上興路、興中街-4.往大興八街(車),NOR-1002,大竹派出所,2025-08-04,19:36:24,2100803031,LOC_3936,121.259453,25.018569,,
(租11402)大興一街與興仁路口-2.往大興八街(車),NOR-1002,大竹派出所,2025-08-04,19:38:05,2100723011,LOC_4019,121.262376,25.014441,,
(租11402)大興一街與興仁路口-3.往大興二街(車),NOR-1002,大竹派出所,2025-08-04,19:38:12,2100723021,LOC_4020,121.262019,25.014476,,
(租11402)大興一街與興仁路口-4.往中興六街(車),NOR-1002,大竹派出所,2025-08-04,19:38:18,2100723031,LOC_4021,121.262003,25.01411,,
(租11401)龍林街與福興三街-2.往福興二街(車),NOR-1002,大竹派出所,2025-08-04,19:42:14,2100715011,LOC_3982,121.255539,25.003799,,
(租11401)龍林街與福興三街-3.往中壢服務區(車),NOR-1002,大竹派出所,2025-08-04,19:42:22,2100715021,LOC_3981,121.255304,25.004224,,
(租11401)龍林街與福興三街-4.往龍安街二段(車),NOR-1002,大竹派出所,2025-08-04,19:42:25,2100715031,LOC_3981,121.255452,25.004319,,
(租11402)龍林街與中興路585巷-3.往中壢服務區(車),NOR-1002,大竹派出所,2025-08-04,19:42:36,2100755021,LOC_4063,121.255026,25.004862,,
(租11402)龍林街與中興路585巷-5.往涵洞(車),NOR-1002,大竹派出所,2025-08-04,19:42:38,2100755041,LOC_4061,121.255147,25.004864,,
(租11402)龍林街與中興路585巷-4.往龍安街二段(車),NOR-1002,大竹派出所,2025-08-04,19:42:45,2100755031,LOC_4064,121.255349,25.00511,,
(租11402)龍林街與中興路585巷-2.往中興路(車),NOR-1002,大竹派出所,2025-08-04,19:42:49,2100755011,LOC_4062,121.255075,25.005162,,
(租11402)中興路與中興路667巷口-7.中興路往龍安街二段自行車道(車),NOR-1002,大竹派出所,2025-08-04,19:44:33,2100963061,LOC_4024,121.251941,25.00862,,
(租11402)中興路與中興路667巷口-3.往龍安街二段(車),NOR-1002,大竹派出所,2025-08-04,19:44:34,2100963021,LOC_4024,121.251868,25.008618,,
(租11402)中興路與中興路667巷口-5.往中興路711巷(車),NOR-1002,大竹派出所,2025-08-04,19:44:38,2100963041,LOC_4026,121.251703,25.0084,,
(租11402)中興路與中興路667巷口-4.往合圳北路(車),NOR-1002,大竹派出所,2025-08-04,19:44:51,2100963031,LOC_4025,121.25114,25.008585,,
(租11402)中興路與中興路667巷口-6.中興路往合圳北路自行車道(車),NOR-1002,大竹派出所,2025-08-04,19:44:52,2100963051,LOC_4025,121.251108,25.008596,,
(租11401)中興路756巷口-4.往中興路711巷(車),NOR-1002,大竹派出所,2025-08-04,19:45:31,2100706031,LOC_3972,121.249145,25.007982,,
(租11401)中興路756巷口-5.往中興路711巷(車),NOR-1002,大竹派出所,2025-08-04,19:45:37,2100706041,LOC_3973,121.249206,25.008295,,
(租11401)中興路756巷口-7.往大竹外車道(車),NOR-1002,大竹派出所,2025-08-04,19:45:40,2100706061,LOC_3974,121.249394,25.008423,,
(租11401)中興路756巷口-6.往大竹內車道(車),NOR-1002,大竹派出所,2025-08-04,19:45:41,2100706051,LOC_3974,121.249394,25.008432,,
(租11401)中興路756巷口-3.往福林街(車),NOR-1002,大竹派出所,2025-08-04,19:45:46,2100706021,LOC_3971,121.249105,25.008626,,
(租11401)中興路756巷口-2.往福林街(車),NOR-1002,大竹派出所,2025-08-04,19:45:47,2100706011,LOC_3971,121.249175,25.008645,,
(租11402)大觀路三段(台15)、工業八路(一)-3.往成功路(車),DEL-8888,草漯派出所,2025-08-04,22:43:00,2020788021,LOC_1006,121.115167,25.036174,CONVOY-20250804-OUT-2853,
(租11402)大觀路三段(台15)、工業八路(一)-3.往成功路(車),ACC-0001,草漯派出所,2025-08-04,22:43:04,2020788021,LOC_1006,121.115167,25.036174,,CONVOY-20250804-OUT-2853
(租11402)大觀路三段(台15)、工業八路(一)-3.往成功路(車),ACC-0002,草漯派出所,2025-08-04,22:43:16,2020788021,LOC_1006,121.115167,25.036174,,CONVOY-20250804-OUT-2853
(租11402)天祥街11巷至38巷口-5.往天祥街32巷往大漢街(車),DEL-8888,南雅派出所,2025-08-05,00:22:25,2030831041,LOC_1420,121.289251,24.877756,CONVOY-20250804-OUT-2853,
(租11402)天祥街11巷至38巷口-5.往天祥街32巷往大漢街(車),ACC-0001,南雅派出所,2025-08-05,00:22:29,2030831041,LOC_1420,121.289251,24.877756,,CONVOY-20250804-OUT-2853
(租11402)天祥街11巷至38巷口-3.往天祥街16巷往大漢街(車),DEL-8888,南雅派出所,2025-08-05,00:22:35,2030831021,LOC_1418,121.288654,24.877964,CONVOY-20250804-OUT-2853,
(租11402)天祥街11巷至38巷口-5.往天祥街32巷往大漢街(車),ACC-0002,南雅派出所,2025-08-05,00:22:35,2030831041,LOC_1420,121.289251,24.877756,,CONVOY-20250804-OUT-2853
(租11402)天祥街11巷至38巷口-3.往天祥街16巷往大漢街(車),ACC-0001,南雅派出所,2025-08-05,00:22:39,2030831021,LOC_1418,121.288654,24.877964,,CONVOY-20250804-OUT-2853
(租11402)天祥街11巷至38巷口-2.往天祥街12巷往金城路(車),DEL-8888,南雅派出所,2025-08-05,00:22:45,2030831011,LOC_1417,121.288749726009,24.87841847032,CONVOY-20250804-OUT-2853,
(租11402)天祥街11巷至38巷口-2.往天祥街12巷往金城路(車),ACC-0001,南雅派出所,2025-08-05,00:22:49,2030831011,LOC_1417,121.288749726009,24.87841847032,,CONVOY-20250804-OUT-2853
(租11402)天祥街11巷至38巷口-4.往天祥街15巷往金城路(車),DEL-8888,南雅派出所,2025-08-05,00:22:50,2030831031,LOC_1419,121.289064,24.878498,CONVOY-20250804-OUT-2853,
(租11402)天祥街11巷至38巷口-4.往天祥街15巷往金城路(車),ACC-0001,南雅派出所,2025-08-05,00:22:53,2030831031,LOC_1419,121.289064,24.878498,,CONVOY-20250804-OUT-2853
(租11402)天祥街11巷至38巷口-3.往天祥街16巷往大漢街(車),ACC-0002,南雅派出所,2025-08-05,00:22:54,2030831021,LOC_1418,121.288654,24.877964,,CONVOY-20250804-OUT-2853
(租11402)天祥街11巷至38巷口-4.往天祥街15巷往金城路(車),ACC-0002,南雅派出所,2025-08-05,00:23:01,2030831031,LOC_1419,121.289064,24.878498,,CONVOY-20250804-OUT-2853
(租11402)天祥街11巷至38巷口-2.往天祥街12巷往金城路(車),ACC-0002,南雅派出所,2025-08-05,00:23:04,2030831011,LOC_1417,121.288749726009,24.87841847032,,CONVOY-20250804-OUT-2853
(租11402)文化路、文化路271巷-3.往文化路271巷往中華路(車),DEL-8888,南雅派出所,2025-08-05,00:23:32,2030428021,LOC_1424,121.287983,24.875952,CONVOY-20250804-OUT-2853,
(租11402)文化路、文化路271巷-3.往文化路271巷往中華路(車),ACC-0001,南雅派出所,2025-08-05,00:23:35,2030428021,LOC_1424,121.287983,24.875952,,CONVOY-20250804-OUT-2853
(租11402)文化路、文化路271巷-2.往文化路261巷往中華路(車),DEL-8888,南雅派出所,2025-08-05,00:23:41,2030428011,LOC_1423,121.288402,24.875801,CONVOY-20250804-OUT-2853,
(租11402)文化路、文化路271巷-3.往文化路271巷往中華路(車),ACC-0002,南雅派出所,2025-08-05,00:23:42,2030428021,LOC_1424,121.287983,24.875952,,CONVOY-20250804-OUT-2853
(租11402)文化路、文化路271巷-2.往文化路261巷往中華路(車),ACC-0001,南雅派出所,2025-08-05,00:23:45,2030428011,LOC_1423,121.288402,24.875801,,CONVOY-20250804-OUT-2853
(租11402)文化路、文化路271巷-2.往文化路261巷往中華路(車),ACC-0002,南雅派出所,2025-08-05,00:23:54,2030428011,LOC_1423,121.288402,24.875801,,CONVOY-20250804-OUT-2853
(租11402)文化路、文化路271巷-4.往文化路273巷往康莊路377巷(車),DEL-8888,南雅派出所,2025-08-05,00:23:59,2030428031,LOC_1425,121.287601,24.875711,CONVOY-20250804-OUT-2853,
(租11402)文化路、文化路271巷-4.往文化路273巷往康莊路377巷(車),ACC-0001,南雅派出所,2025-08-05,00:24:03,2030428031,LOC_1425,121.287601,24.875711,,CONVOY-20250804-OUT-2853
(租11402)文化路、文化路271巷-4.往文化路273巷往康莊路377巷(車),ACC-0002,南雅派出所,2025-08-05,00:24:18,2030428031,LOC_1425,121.287601,24.875711,,CONVOY-20250804-OUT-2853
(租11401)中正東路、康莊路-7.往復興路(車),DEL-8888,南雅派出所,2025-08-05,00:25:30,2030403061,LOC_1396,121.288136,24.88146,CONVOY-20250804-OUT-2853,
(租11401)中正東路、康莊路-7.往復興路(車),ACC-0001,南雅派出所,2025-08-05,00:25:33,2030403061,LOC_1396,121.288136,24.88146,,CONVOY-20250804-OUT-2853
(租11401)中正東路、康莊路-7.往復興路(車),ACC-0002,南雅派出所,2025-08-05,00:25:40,2030403061,LOC_1396,121.288136,24.88146,,CONVOY-20250804-OUT-2853
(租11401)中正東路、康莊路-5.往中正東路、康莊路口(車),DEL-8888,南雅派出所,2025-08-05,00:25:52,2030403041,LOC_1395,121.288994,24.882456,CONVOY-20250804-OUT-2853,
(租11401)中正東路、康莊路-5.往中正東路、康莊路口(車),ACC-0001,南雅派出所,2025-08-05,00:25:56,2030403041,LOC_1395,121.288994,24.882456,,CONVOY-20250804-OUT-2853
(租11401)中正東路、康莊路-4.往民權路(車),DEL-8888,南雅派出所,2025-08-05,00:26:01,2030403031,LOC_1394,121.288718,24.882709,CONVOY-20250804-OUT-2853,
(租11401)中正東路、康莊路-5.往中正東路、康莊路口(車),ACC-0002,南雅派出所,2025-08-05,00:26:04,2030403041,LOC_1395,121.288994,24.882456,,CONVOY-20250804-OUT-2853
(租11401)中正東路、康莊路-4.往民權路(車),ACC-0001,南雅派出所,2025-08-05,00:26:04,2030403031,LOC_1394,121.288718,24.882709,,CONVOY-20250804-OUT-2853
(租11401)中正東路、康莊路-6.往民生路(車),DEL-8888,南雅派出所,2025-08-05,00:26:09,2030403051,LOC_1392,121.288387,24.882871,CONVOY-20250804-OUT-2853,
(租11401)中正東路、康莊路-6.往民生路(車),ACC-0001,南雅派出所,2025-08-05,00:26:12,2030403051,LOC_1392,121.288387,24.882871,,CONVOY-20250804-OUT-2853
(租11401)中正東路、康莊路-4.往民權路(車),ACC-0002,南雅派出所,2025-08-05,00:26:18,2030403031,LOC_1394,121.288718,24.882709,,CONVOY-20250804-OUT-2853
(租11401)康莊路、民權路-4.往中央路(車),DEL-8888,南雅派出所,2025-08-05,00:26:22,2030418031,LOC_1405,121.288515,24.883689,CONVOY-20250804-OUT-2853,
(租11401)中正東路、康莊路-6.往民生路(車),ACC-0002,南雅派出所,2025-08-05,00:26:22,2030403051,LOC_1392,121.288387,24.882871,,CONVOY-20250804-OUT-2853
(租11401)康莊路、民權路-4.往中央路(車),ACC-0001,南雅派出所,2025-08-05,00:26:26,2030418031,LOC_1405,121.288515,24.883689,,CONVOY-20250804-OUT-2853
(租11401)康莊路、民權路-2.往信義路(車),DEL-8888,南雅派出所,2025-08-05,00:26:29,2030418011,LOC_1404,121.288798,24.883815,CONVOY-20250804-OUT-2853,
(租11401)康莊路、民權路-3.往慈湖路(車),DEL-8888,南雅派出所,2025-08-05,00:26:30,2030418021,LOC_1404,121.288836,24.883757,CONVOY-20250804-OUT-2853,
(租11401)康莊路、民權路-2.往信義路(車),ACC-0001,南雅派出所,2025-08-05,00:26:32,2030418011,LOC_1404,121.288798,24.883815,,CONVOY-20250804-OUT-2853
(租11401)康莊路、民權路-3.往慈湖路(車),ACC-0001,南雅派出所,2025-08-05,00:26:34,2030418021,LOC_1404,121.288836,24.883757,,CONVOY-20250804-OUT-2853
(租11401)康莊路、民權路-4.往中央路(車),ACC-0002,南雅派出所,2025-08-05,00:26:34,2030418031,LOC_1405,121.288515,24.883689,,CONVOY-20250804-OUT-2853
(租11401)康莊路、民權路-3.往慈湖路(車),ACC-0002,南雅派出所,2025-08-05,00:26:42,2030418021,LOC_1404,121.288836,24.883757,,CONVOY-20250804-OUT-2853
(租11401)康莊路、民權路-2.往信義路(車),ACC-0002,南雅派出所,2025-08-05,00:26:46,2030418011,LOC_1404,121.288798,24.883815,,CONVOY-20250804-OUT-2853
(租11401)中央路、民生路-5.往和平路(車),DEL-8888,南雅派出所,2025-08-05,00:26:49,2030402041,LOC_1390,121.28781,24.884079,CONVOY-20250804-OUT-2853,
(租11401)中央路、民生路-5.往和平路(車),ACC-0001,南雅派出所,2025-08-05,00:26:52,2030402041,LOC_1390,121.28781,24.884079,,CONVOY-20250804-OUT-2853
(租11401)中央路、民生路-5.往和平路(車),ACC-0002,南雅派出所,2025-08-05,00:27:07,2030402041,LOC_1390,121.28781,24.884079,,CONVOY-20250804-OUT-2853
(租11401)中正路、中央路-4.往復興路(車),DEL-8888,南雅派出所,2025-08-05,00:27:20,2030404031,LOC_1400,121.28635,24.882992,CONVOY-20250804-OUT-2853,
(租11401)中正路、中央路-4.往復興路(車),ACC-0001,南雅派出所,2025-08-05,00:27:23,2030404031,LOC_1400,121.28635,24.882992,,CONVOY-20250804-OUT-2853
(租11401)中正路、中央路-4.往復興路(車),ACC-0002,南雅派出所,2025-08-05,00:27:35,2030404031,LOC_1400,121.28635,24.882992,,CONVOY-20250804-OUT-2853
(租11401)中正東路、康莊路-3.往和二路(車),DEL-8888,南雅派出所,2025-08-05,00:28:34,2030403021,LOC_1393,121.28947,24.882315,CONVOY-20250804-OUT-2853,
(租11401)中正東路、康莊路-3.往和二路(車),ACC-0001,南雅派出所,2025-08-05,00:28:38,2030403021,LOC_1393,121.28947,24.882315,,CONVOY-20250804-OUT-2853
(租11402)慈湖路、慈湖路109巷-4.往中正東路22巷往中正東路(車),DEL-8888,南雅派出所,2025-08-05,00:28:43,2030830031,LOC_1442,121.289556,24.881765,CONVOY-20250804-OUT-2853,
(租11401)中正東路、康莊路-3.往和二路(車),ACC-0002,南雅派出所,2025-08-05,00:28:48,2030403021,LOC_1393,121.28947,24.882315,,CONVOY-20250804-OUT-2853
(租11402)慈湖路、慈湖路109巷-4.往中正東路22巷往中正東路(車),ACC-0001,南雅派出所,2025-08-05,00:28:48,2030830031,LOC_1442,121.289556,24.881765,,CONVOY-20250804-OUT-2853
(租11402)慈湖路、慈湖路109巷-5.往慈湖路109巷往和二路(車),DEL-8888,南雅派出所,2025-08-05,00:28:48,2030830041,LOC_1441,121.289608,24.881454,CONVOY-20250804-OUT-2853,
(租11402)慈湖路、慈湖路109巷-5.往慈湖路109巷往和二路(車),ACC-0001,南雅派出所,2025-08-05,00:28:52,2030830041,LOC_1441,121.289608,24.881454,,CONVOY-20250804-OUT-2853
(租11402)慈湖路、慈湖路109巷-4.往中正東路22巷往中正東路(車),ACC-0002,南雅派出所,2025-08-05,00:28:58,2030830031,LOC_1442,121.289556,24.881765,,CONVOY-20250804-OUT-2853
(租11402)中正東路、和二路-5.往中正東路往慈湖路(車),DEL-8888,南雅派出所,2025-08-05,00:29:02,2030828041,LOC_1410,121.290458,24.881784,CONVOY-20250804-OUT-2853,
(租11402)慈湖路、慈湖路109巷-5.往慈湖路109巷往和二路(車),ACC-0002,南雅派出所,2025-08-05,00:29:02,2030830041,LOC_1441,121.289608,24.881454,,CONVOY-20250804-OUT-2853
(租11402)中正東路、和二路-5.往中正東路往慈湖路(車),ACC-0001,南雅派出所,2025-08-05,00:29:05,2030828041,LOC_1410,121.290458,24.881784,,CONVOY-20250804-OUT-2853
(租11402)中正東路、和二路-4.往和二路往復興路(車),DEL-8888,南雅派出所,2025-08-05,00:29:09,2030828031,LOC_1409,121.290528,24.881548,CONVOY-20250804-OUT-2853,
(租11402)中正東路、和二路-4.往和二路往復興路(車),ACC-0001,南雅派出所,2025-08-05,00:29:13,2030828031,LOC_1409,121.290528,24.881548,,CONVOY-20250804-OUT-2853
(租11402)中正東路、和二路-5.往中正東路往慈湖路(車),ACC-0002,南雅派出所,2025-08-05,00:29:18,2030828041,LOC_1410,121.290458,24.881784,,CONVOY-20250804-OUT-2853
(租11402)中正東路、和二路-4.往和二路往復興路(車),ACC-0002,南雅派出所,2025-08-05,00:29:19,2030828031,LOC_1409,121.290528,24.881548,,CONVOY-20250804-OUT-2853
(租11401)文化路、文化路59巷-2.往文化路75巷(車),DEL-8888,南雅派出所,2025-08-05,00:30:06,2030409011,LOC_1402,121.293601,24.881535,CONVOY-20250804-OUT-2853,
(租11401)文化路、文化路59巷-2.往文化路75巷(車),ACC-0001,南雅派出所,2025-08-05,00:30:09,2030409011,LOC_1402,121.293601,24.881535,,CONVOY-20250804-OUT-2853
(租11401)文化路、文化路59巷-3.往文化路59巷(車),DEL-8888,南雅派出所,2025-08-05,00:30:15,2030409021,LOC_1403,121.293938,24.881949,CONVOY-20250804-OUT-2853,
(租11401)文化路、文化路59巷-3.往文化路59巷(車),ACC-0001,南雅派出所,2025-08-05,00:30:19,2030409021,LOC_1403,121.293938,24.881949,,CONVOY-20250804-OUT-2853
(租11401)文化路、文化路59巷-2.往文化路75巷(車),ACC-0002,南雅派出所,2025-08-05,00:30:23,2030409011,LOC_1402,121.293601,24.881535,,CONVOY-20250804-OUT-2853
(租11401)文化路、文化路59巷-3.往文化路59巷(車),ACC-0002,南雅派出所,2025-08-05,00:30:27,2030409021,LOC_1403,121.293938,24.881949,,CONVOY-20250804-OUT-2853
(租11402)中華路、東二路-6.往東二路往中華路(車),DEL-8888,南雅派出所,2025-08-05,00:30:35,2030833051,LOC_1412,121.295136,24.88185,CONVOY-20250804-OUT-2853,
(租11402)中華路、東二路-6.往東二路往中華路(車),ACC-0001,南雅派出所,2025-08-05,00:30:39,2030833051,LOC_1412,121.295136,24.88185,,CONVOY-20250804-OUT-2853
(租11402)中華路、東二路-6.往東二路往中華路(車),ACC-0002,南雅派出所,2025-08-05,00:30:48,2030833051,LOC_1412,121.295136,24.88185,,CONVOY-20250804-OUT-2853
(租11402)中華路、東二路-4.往中華路往內山公路(車),DEL-8888,南雅派出所,2025-08-05,00:30:48,2030833031,LOC_1414,121.295356,24.882621,CONVOY-20250804-OUT-2853,
(租11402)中華路、東二路-4.往中華路往內山公路(車),ACC-0001,南雅派出所,2025-08-05,00:30:51,2030833031,LOC_1414,121.295356,24.882621,,CONVOY-20250804-OUT-2853
(租11402)中華路、東二路-5.往中華路往復興路(車),DEL-8888,南雅派出所,2025-08-05,00:31:26,2030833041,LOC_1415,121.294892,24.880997,CONVOY-20250804-OUT-2853,
(租11402)中華路、東二路-5.往中華路往復興路(車),ACC-0001,南雅派出所,2025-08-05,00:31:29,2030833041,LOC_1415,121.294892,24.880997,,CONVOY-20250804-OUT-2853
(租11402)美山路一段(桃58)、美山路一段166巷-4.往美山路一段往復興路(車),DEL-8888,三層派出所,2025-08-05,00:33:13,2030437031,LOC_1357,121.300226,24.88323,CONVOY-20250804-OUT-2853,
(租11402)美山路一段(桃58)、美山路一段166巷-4.往美山路一段往復興路(車),ACC-0001,三層派出所,2025-08-05,00:33:16,2030437031,LOC_1357,121.300226,24.88323,,CONVOY-20250804-OUT-2853
(租11402)美山路一段(桃58)、美山路一段166巷-3.往美山路一段166巷往美山路一段230巷(車),DEL-8888,三層派出所,2025-08-05,00:33:24,2030437021,LOC_1356,121.300571,24.882892,CONVOY-20250804-OUT-2853,
(租11402)美山路一段(桃58)、美山路一段166巷-3.往美山路一段166巷往美山路一段230巷(車),ACC-0001,三層派出所,2025-08-05,00:33:27,2030437021,LOC_1356,121.300571,24.882892,,CONVOY-20250804-OUT-2853
(租11402)美山路一段、美山路一段601巷-2.往美山路一段601巷往美山路一段601巷62弄(車),DEL-8888,三層派出所,2025-08-05,00:35:52,2030957011,LOC_1353,121.301425,24.874965,CONVOY-20250804-OUT-2853,
(租11402)美山路一段、美山路一段601巷-2.往美山路一段601巷往美山路一段601巷62弄(車),ACC-0001,三層派出所,2025-08-05,00:35:57,2030957011,LOC_1353,121.301425,24.874965,,CONVOY-20250804-OUT-2853
(租11401)美山路一段(桃58)、美山路一段738巷-3.往金山路(車),DEL-8888,三層派出所,2025-08-05,00:36:24,2030438021,LOC_1335,121.300472,24.873249,CONVOY-20250804-OUT-2853,
(租11401)美山路一段(桃58)、美山路一段738巷-3.往金山路(車),ACC-0001,三層派出所,2025-08-05,00:36:29,2030438021,LOC_1335,121.300472,24.873249,,CONVOY-20250804-OUT-2853
(租11401)美山路一段(桃58)、美山路一段738巷-2.往復興路一段39巷(車),DEL-8888,三層派出所,2025-08-05,00:36:38,2030438011,LOC_1334,121.299974,24.872974,CONVOY-20250804-OUT-2853,
(租11401)美山路一段(桃58)、美山路一段738巷-2.往復興路一段39巷(車),ACC-0001,三層派出所,2025-08-05,00:36:43,2030438011,LOC_1334,121.299974,24.872974,,CONVOY-20250804-OUT-2853
(租11401)美山路一段(桃58)、美山路一段738巷-4.往美山路二段(車),DEL-8888,三層派出所,2025-08-05,00:37:03,2030438031,LOC_1336,121.300764,24.872283,CONVOY-20250804-OUT-2853,
(租11401)美山路一段(桃58)、美山路一段738巷-4.往美山路二段(車),ACC-0001,三層派出所,2025-08-05,00:37:07,2030438031,LOC_1336,121.300764,24.872283,,CONVOY-20250804-OUT-2853
(租11401)復興路一段(台7)、復興路一段145巷-2.美華里(車),DEL-8888,三層派出所,2025-08-05,00:41:32,2030419011,LOC_1342,121.294598,24.864442,CONVOY-20250804-OUT-2853,
(租11401)復興路一段(台7)、復興路一段145巷-2.美華里(車),ACC-0001,三層派出所,2025-08-05,00:41:37,2030419011,LOC_1342,121.294598,24.864442,,CONVOY-20250804-OUT-2853
(租11401)復興路一段(台7)、復興路一段145巷-3.往大溪(車),DEL-8888,三層派出所,2025-08-05,00:41:43,2030419021,LOC_1343,121.294199,24.864132,CONVOY-20250804-OUT-2853,
(租11401)復興路一段(台7)、復興路一段145巷-3.往大溪(車),ACC-0001,三層派出所,2025-08-05,00:41:47,2030419021,LOC_1343,121.294199,24.864132,,CONVOY-20250804-OUT-2853
(租11402)慈康路(桃59)、慈康路273巷-3.往慈康路往中華路(車),DEL-8888,南雅派出所,2025-08-05,00:44:14,2030956021,LOC_1437,121.285814,24.860604,CONVOY-20250804-OUT-2853,
(租11402)慈康路(桃59)、慈康路273巷-3.往慈康路往中華路(車),ACC-0001,南雅派出所,2025-08-05,00:44:19,2030956021,LOC_1437,121.285814,24.860604,,CONVOY-20250804-OUT-2853
(租11402)慈康路(桃59)、慈康路273巷-4.往慈康路往復興路一段(車),DEL-8888,南雅派出所,2025-08-05,00:44:27,2030956031,LOC_1438,121.28587,24.860127,CONVOY-20250804-OUT-2853,
(租11402)慈康路(桃59)、慈康路273巷-4.往慈康路往復興路一段(車),ACC-0001,南雅派出所,2025-08-05,00:44:30,2030956031,LOC_1438,121.28587,24.860127,,CONVOY-20250804-OUT-2853
(租11402)慈康路(桃59)、慈康路273巷-2.往慈康路273巷往復興路一段218巷(車),DEL-8888,南雅派出所,2025-08-05,00:44:39,2030956011,LOC_1436,121.286083,24.859608,CONVOY-20250804-OUT-2853,
(租11402)慈康路(桃59)、慈康路273巷-2.往慈康路273巷往復興路一段218巷(車),ACC-0001,南雅派出所,2025-08-05,00:44:44,2030956011,LOC_1436,121.286083,24.859608,,CONVOY-20250804-OUT-2853
(租11402)復興路一段218巷、復興路一段626巷-3.往復興路一段626巷往慈康路589巷(車),DEL-8888,三層派出所,2025-08-05,00:46:42,2030457021,LOC_1361,121.289381,24.856042,CONVOY-20250804-OUT-2853,
(租11402)復興路一段218巷、復興路一段626巷-3.往復興路一段626巷往慈康路589巷(車),ACC-0001,三層派出所,2025-08-05,00:46:47,2030457021,LOC_1361,121.289381,24.856042,,CONVOY-20250804-OUT-2853
(租11402)復興路一段218巷、復興路一段626巷-5.往復興路一段218巷往復興路一段(車),DEL-8888,三層派出所,2025-08-05,00:46:51,2030457041,LOC_1359,121.289691,24.855916,CONVOY-20250804-OUT-2853,
(租11402)復興路一段218巷、復興路一段626巷-5.往復興路一段218巷往復興路一段(車),ACC-0001,三層派出所,2025-08-05,00:46:55,2030457041,LOC_1359,121.289691,24.855916,,CONVOY-20250804-OUT-2853
(租11402)復興路一段218巷、復興路一段626巷-4.往復興路一段626巷往復興路一段622-1號(車),DEL-8888,三層派出所,2025-08-05,00:47:02,2030457031,LOC_1362,121.290023,24.855665,CONVOY-20250804-OUT-2853,
(租11402)復興路一段218巷、復興路一段626巷-4.往復興路一段626巷往復興路一段622-1號(車),ACC-0001,三層派出所,2025-08-05,00:47:06,2030457031,LOC_1362,121.290023,24.855665,,CONVOY-20250804-OUT-2853
(租11402)復興路一段218巷、復興路一段626巷-2.往復興路一段218巷往慈康路(車),DEL-8888,三層派出所,2025-08-05,00:47:13,2030457011,LOC_1360,121.289419,24.855518,CONVOY-20250804-OUT-2853,
(租11402)復興路一段218巷、復興路一段626巷-2.往復興路一段218巷往慈康路(車),ACC-0001,三層派出所,2025-08-05,00:47:18,2030457011,LOC_1360,121.289419,24.855518,,CONVOY-20250804-OUT-2853
(租11401)復興路一段755號(福安國小)-4.往慈康路(車),DEL-8888,三層派出所,2025-08-05,00:49:03,2030420031,LOC_1349,121.288432,24.850829,CONVOY-20250804-OUT-2853,
(租11401)復興路一段755號(福安國小)-4.往慈康路(車),ACC-0001,三層派出所,2025-08-05,00:49:07,2030420031,LOC_1349,121.288432,24.850829,,CONVOY-20250804-OUT-2853
(租11401)復興路一段755號(福安國小)-3.往復興路一段(車),DEL-8888,三層派出所,2025-08-05,00:49:13,2030420021,LOC_1347,121.288185,24.850307,CONVOY-20250804-OUT-2853,
(租11401)復興路一段755號(福安國小)-3.往復興路一段(車),ACC-0001,三層派出所,2025-08-05,00:49:17,2030420021,LOC_1347,121.288185,24.850307,,CONVOY-20250804-OUT-2853
(租11401)復興路一段755號(福安國小)-2.往三層所(車),DEL-8888,三層派出所,2025-08-05,00:49:18,2030420011,LOC_1348,121.288009,24.85013,CONVOY-20250804-OUT-2853,
(租11401)復興路一段755號(福安國小)-2.往三層所(車),ACC-0001,三層派出所,2025-08-05,00:49:22,2030420011,LOC_1348,121.288009,24.85013,,CONVOY-20250804-OUT-2853
(租11401)安和路、安和路29巷-4.往康莊路三段(車),DEL-8888,內柵派出所,2025-08-05,00:51:47,2030411031,LOC_1278,121.281518,24.856469,CONVOY-20250804-OUT-2853,
(租11401)安和路、安和路29巷-4.往康莊路三段(車),ACC-0001,內柵派出所,2025-08-05,00:51:51,2030411031,LOC_1278,121.281518,24.856469,,CONVOY-20250804-OUT-2853
(租11401)安和路、安和路29巷-3.往內柵路一段101巷(車),DEL-8888,內柵派出所,2025-08-05,00:51:52,2030411021,LOC_1277,121.281552,24.856768,CONVOY-20250804-OUT-2853,
